{"version": 0.6, "generator": "Overpass API 0.7.62.1 084b4234", "osm3s": {"timestamp_osm_base": "2024-11-19T03:24:28Z", "copyright": "The data included in this document is from www.openstreetmap.org. The data is made available under ODbL."}, "elements": [{"type": "node", "id": 27565105, "lat": -1.2832533, "lon": 36.8172449, "tags": {"admin_level": "2", "capital": "yes", "capital_ISO3166-1": "yes", "ele": "1661", "is_capital": "country", "name": "Nairobi", "name:am": "\u1293\u12ed\u122e\u1262", "name:ar": "\u0646\u064a\u0631\u0648\u0628\u064a", "name:arz": "\u0646\u0627\u064a\u0631\u0648\u0628\u0649", "name:az": "Nayrobi", "name:azb": "\u0646\u0627\u06cc\u0631\u0648\u0628\u06cc", "name:bat-smg": "Nairobis", "name:be": "\u041d\u0430\u0439\u0440\u043e\u0431\u0456", "name:be-tarask": "\u041d\u0430\u0439\u0440\u043e\u0431\u0456", "name:bg": "\u041d\u0430\u0439\u0440\u043e\u0431\u0438", "name:bn": "\u09a8\u09be\u0987\u09b0\u09cb\u09ac\u09bf", "name:bo": "\u0f53\u0f60\u0f72\u0f0b\u0f62\u0f7c\u0f0b\u0f56\u0f72\u0f0d", "name:br": "Nairobi", "name:ckb": "\u0646\u0627\u06cc\u0631\u06c6\u0628\u06cc", "name:cs": "Nairobi", "name:de": "Nairobi", "name:el": "\u039d\u03b1\u03ca\u03c1\u03cc\u03bc\u03c0\u03b9", "name:en": "Nairobi", "name:eo": "Najrobo", "name:es": "Nairobi", "name:fa": "\u0646\u0627\u06cc\u0631\u0648\u0628\u06cc", "name:fr": "Nairobi", "name:fy": "Nairoby", "name:grc": "\u039d\u03b1\u03ca\u03c1\u03cc\u03b2\u03b9\u03bf\u03bd", "name:he": "\u05e0\u05d9\u05d9\u05e8\u05d5\u05d1\u05d9", "name:hi": "\u0928\u0948\u0930\u094b\u092c\u0940", "name:ht": "Nayrobi", "name:hu": "Nairobi", "name:hy": "\u0546\u0561\u0575\u0580\u0578\u0562\u056b", "name:id": "Nairobi", "name:is": "Na\u00edr\u00f3b\u00ed", "name:it": "Nairobi", "name:ja": "\u30ca\u30a4\u30ed\u30d3", "name:ka": "\u10dc\u10d0\u10d8\u10e0\u10dd\u10d1\u10d8", "name:kk": "\u041d\u0430\u0439\u0440\u043e\u0431\u0438", "name:kn": "\u0ca8\u0cc8\u0cb0\u0ccb\u0cac\u0cbf", "name:ko": "\ub098\uc774\ub85c\ube44", "name:ku": "Nairob\u00ee", "name:ky": "\u041d\u0430\u0439\u0440\u043e\u0431\u0438", "name:la": "Nairobia", "name:lez": "\u041d\u0430\u0439\u0440\u043e\u0431\u0438", "name:lt": "Nairobis", "name:mk": "\u041d\u0430\u0458\u0440\u043e\u0431\u0438", "name:ml": "\u0d28\u0d2f\u0d4d\u0d31\u0d4b\u0d2c\u0d3f", "name:mn": "\u041d\u0430\u0439\u0440\u043e\u0431\u0438", "name:mr": "\u0928\u0948\u0930\u094b\u092c\u0940", "name:mrj": "\u041d\u0430\u0439\u0440\u043e\u0431\u0438", "name:my": "\u1014\u102d\u102f\u1004\u103a\u101b\u102d\u102f\u1018\u102e\u1019\u103c\u102d\u102f\u1037", "name:nl": "Nairobi", "name:no": "Nairobi", "name:nov": "Nayrobi", "name:oc": "Nair\u00f2bi", "name:os": "\u041d\u0430\u0439\u0440\u043e\u0431\u0438", "name:pa": "\u0a28\u0a3e\u0a07\u0a30\u0a4b\u0a2c\u0a40", "name:pl": "Nairobi", "name:pms": "Nair\u00f2bi", "name:pnb": "\u0646\u06cc\u0631\u0648\u0628\u06cc", "name:pt": "Nair\u00f3bi", "name:ru": "\u041d\u0430\u0439\u0440\u043e\u0431\u0438", "name:rue": "\u041d\u0430\u0439\u0440\u043e\u0431\u0456", "name:sah": "\u041d\u0430\u0439\u0440\u043e\u0431\u0438", "name:sk": "Nairobi", "name:so": "Nayroobi", "name:sr": "\u041d\u0430\u0458\u0440\u043e\u0431\u0438", "name:sv": "Nairobi", "name:sw": "Nairobi", "name:ta": "\u0ba8\u0bc8\u0bb0\u0bcb\u0baa\u0bbf", "name:tg": "\u041d\u0430\u0439\u0440\u043e\u0431\u0438", "name:th": "\u0e44\u0e19\u0e42\u0e23\u0e1a\u0e35", "name:tk": "Na\u00fdrobi", "name:tr": "Nairobi", "name:tt": "\u041d\u0430\u0439\u0440\u043e\u0431\u0438", "name:udm": "\u041d\u0430\u0439\u0440\u043e\u0431\u0438", "name:ug": "\u0646\u0627\u064a\u0631\u0648\u0628\u0649", "name:uk": "\u041d\u0430\u0439\u0440\u043e\u0431\u0456", "name:ur": "\u0646\u06cc\u0631\u0648\u0628\u06cc", "name:wuu": "\u5185\u7f57\u6bd5", "name:yi": "\u05e0\u05d9\u05d9\u05e8\u05d0\u05d1\u05d9", "name:yue": "\u5948\u6d1b\u6bd4", "name:zh": "\u5185\u7f57\u6bd5/\u5167\u7f85\u7562/\u5948\u6d1b\u6bd4", "name:zh-Hans": "\u5185\u7f57\u6bd5", "name:zh-Hant": "\u5167\u7f85\u7562/\u5948\u6d1b\u6bd4", "place": "city", "population": "3138295", "source:population": "wikipedia, 2009", "wikidata": "Q3870", "wikipedia": "de:Nairobi"}}, {"type": "node", "id": 34684808, "lat": 2.0349312, "lon": 45.3419183, "tags": {"admin_level": "2", "alt_name": "Xamar", "alt_name:ar": "\u0645\u0642\u062f\u0634\u0648;\u0645\u064e\u0642\u0652\u062f\u064e\u0634\u064f\u0648", "capital": "yes", "ele": "9", "name": "Muqdisho \u0645\u0642\u062f\u064a\u0634\u0648", "name:ace": "Mogadishu", "name:af": "Mogadisjoe", "name:am": "\u121e\u1243\u12f2\u123e", "name:an": "Mogadixo", "name:ar": "\u0645\u0642\u062f\u064a\u0634\u0648", "name:az": "Moqadi\u015fo", "name:azb": "\u0645\u0648\u0642\u0627\u062f\u06cc\u0634\u0648", "name:bcl": "Mogadishu", "name:be": "\u041c\u0430\u0433\u0430\u0434\u044b\u0448\u0430", "name:be-tarask": "\u041c\u0430\u0433\u0430\u0434\u0437\u0456\u0448\u0443", "name:bg": "\u041c\u043e\u0433\u0430\u0434\u0438\u0448\u0443", "name:bn": "\u09ae\u09cb\u0997\u09be\u09a6\u09bf\u09b6\u09c1", "name:bo": "\u0f58\u0f7c\u0f0b\u0f42\u0f0b\u0f51\u0f72\u0f0b\u0f64\u0f74\u0f0d", "name:br": "Muqdisho", "name:bs": "Mogadi\u0161", "name:ca": "Mogadixo", "name:ckb": "\u0645\u06c6\u06af\u0627\u062f\u06cc\u0634\u0648", "name:cs": "Mogadi\u0161u", "name:cy": "Mogadishu", "name:da": "Mogadishu", "name:de": "Mogadischu", "name:el": "\u039c\u03bf\u03b3\u03ba\u03b1\u03bd\u03c4\u03af\u03c3\u03bf\u03c5", "name:en": "Mogadishu", "name:eo": "Mogadi\u015do", "name:es": "Mogadiscio", "name:et": "Muqdisho", "name:eu": "Muqdisho", "name:fa": "\u0645\u0648\u06af\u0627\u062f\u06cc\u0634\u0648", "name:fi": "Mogadishu", "name:fo": "Mogadishu", "name:fr": "Mogadiscio", "name:fy": "Mogadisj\u00fb", "name:ga": "Mogaidisi\u00fa", "name:gd": "Mogadishu", "name:gl": "Mogadixo", "name:grc": "\u039c\u03bf\u03b3\u03b1\u03b4\u03b9\u03c3\u03bf\u03c5\u0390\u03b1", "name:he": "\u05de\u05d5\u05d2\u05d3\u05d9\u05e9\u05d5", "name:hi": "\u092e\u094b\u0917\u093e\u0926\u0940\u0936\u0942", "name:hif": "Mogadishu", "name:hr": "Mogadi\u0161u", "name:ht": "Moukdicho", "name:hu": "Mogadishu", "name:hy": "\u0544\u0578\u0563\u0561\u0564\u056b\u0577\u0578", "name:id": "Mogadishu", "name:ie": "Mogadishu", "name:io": "Mogadishu", "name:is": "M\u00f3gadisj\u00fa", "name:it": "Mogadiscio", "name:ja": "\u30e2\u30ac\u30c7\u30a3\u30b7\u30e5", "name:jv": "Mogadishu", "name:ka": "\u10db\u10dd\u10d2\u10d0\u10d3\u10d8\u10e8\u10dd", "name:kab": "Mugadiccu", "name:kk": "\u041c\u043e\u0433\u0430\u0434\u0438\u0448\u043e \u049b\u0430\u043b\u0430\u0441\u044b", "name:kn": "\u0cae\u0cca\u0c97\u0ca6\u0cbf\u0cb6\u0cc1", "name:ko": "\ubaa8\uac00\ub514\uc288", "name:ku": "Mogad\u00ee\u015fu", "name:ky": "\u041c\u043e\u0433\u0430\u0434\u0438\u0448\u043e", "name:la": "Mogadiscio", "name:lij": "Mogadiscio", "name:lmo": "Mugadiss", "name:lt": "Mogadi\u0161as", "name:lv": "Mogad\u012b\u0161o", "name:mk": "\u041c\u043e\u0433\u0430\u0434\u0438\u0448\u0443", "name:ml": "\u0d2e\u0d4a\u0d17\u0d3e\u0d26\u0d3f\u0d37\u0d41", "name:mr": "\u092e\u094b\u0917\u093e\u0926\u093f\u0936\u0942", "name:ms": "Mogadishu", "name:nan": "Mogadishu", "name:nl": "Mogadishu", "name:nn": "Mogadishu", "name:no": "Mogadishu", "name:nov": "Mogadishu", "name:oc": "Mogadisho", "name:pa": "\u0a2e\u0a15\u0a26\u0a40\u0a38\u0a3c\u0a42", "name:pap": "Mogadishu", "name:pl": "Mogadiszu", "name:pms": "Mogadiss", "name:pnb": "\u0645\u0648\u06af\u0627\u062f\u06cc\u0634\u0648", "name:pt": "Mogad\u00edscio", "name:ro": "Mogadishu", "name:ru": "\u041c\u043e\u0433\u0430\u0434\u0438\u0448\u043e", "name:ru:word_stress": "\u041c\u043e\u0433\u0430\u0434\u0438\u0301\u0448\u043e", "name:rw": "Mogadishu", "name:sco": "Mogadishu", "name:sh": "Mogadishu", "name:simple": "Mogadishu", "name:sk": "Mogadi\u0161o", "name:sl": "Mogadi\u0161", "name:so": "Muqdisho", "name:sr": "\u041c\u043e\u0433\u0430\u0434\u0438\u0448\u0443", "name:sv": "Mogadishu", "name:sw": "Mogadishu", "name:ta": "\u0bae\u0bca\u0b95\u0b9f\u0bbf\u0b9a\u0bc1", "name:tg": "\u041c\u043e\u0433\u0430\u0434\u0438\u0448\u043e", "name:th": "\u0e42\u0e21\u0e01\u0e32\u0e14\u0e34\u0e0a\u0e39", "name:tl": "Mogadishu", "name:tr": "Mogadi\u015fu", "name:udm": "\u041c\u043e\u0433\u0430\u0434\u0438\u0448\u043e", "name:uk": "\u041c\u043e\u0491\u0430\u0434\u0456\u0448\u043e", "name:ur": "\u0645\u0648\u063a\u0627\u062f\u06cc\u0634\u0648", "name:vec": "Mogadiscio", "name:vi": "Mogadishu", "name:war": "Mogadishu", "name:wo": "Mogadisu", "name:yo": "Mogadishu", "name:zh": "\u6469\u52a0\u8fea\u6c99", "place": "city", "population": "2610000", "population:date": "2023", "wikidata": "Q2449", "wikipedia": "ar:\u0645\u0642\u062f\u064a\u0634\u0648"}}, {"type": "node", "id": 35776957, "lat": 0.6758822, "lon": 43.5183907}, {"type": "node", "id": 43528040, "lat": 3.0, "lon": 42.0, "tags": {"name": "Gedo \u062c\u062f\u0648", "name:ar": "\u062c\u062f\u0648", "name:en": "Gedo", "name:fr": "Gedo", "name:it": "Ghedo", "name:ru": "\u0413\u0435\u0434\u043e", "place": "state", "ref": "GD", "state_code": "GD"}}, {"type": "node", "id": 43528307, "lat": 1.2516825, "lon": 42.5775654, "tags": {"name": "Bu'aale \u0628\u0648\u0623\u0644", "name:ar": "\u0628\u0648\u0623\u0644", "name:de": "Bu'aale", "name:en": "Bu'aale", "name:es": "Bu'aale", "name:fr": "Bu'aale", "name:ko": "\ubd80\uc54c\ub808", "name:ru": "\u0411\u0443\u0430\u043b\u0435", "place": "city", "wikidata": "Q997314", "wikipedia": "en:Bu'ale"}}, {"type": "node", "id": 44929726, "lat": 3.9384208, "lon": 41.8573239, "tags": {"name": "Mandera", "place": "town", "population": "30433", "wikidata": "Q949915", "wikipedia": "en:Mandera"}}, {"type": "node", "id": 223617766, "lat": -4.6745703, "lon": 39.207397}, {"type": "node", "id": 223617770, "lat": -4.6762695, "lon": 39.2084538}, {"type": "node", "id": 223617774, "lat": -4.6750442, "lon": 39.2088255}, {"type": "node", "id": 223617928, "lat": -4.6808496, "lon": 39.2179399}, {"type": "node", "id": 223618100, "lat": -4.6767207, "lon": 39.2080555}, {"type": "node", "id": 223619066, "lat": -4.6696557, "lon": 39.193813}, {"type": "node", "id": 223655052, "lat": -4.673379, "lon": 39.20605}, {"type": "node", "id": 223655159, "lat": -4.669107, "lon": 39.1988127}, {"type": "node", "id": 223655165, "lat": -4.669037, "lon": 39.1957912}, {"type": "node", "id": 223655169, "lat": -4.6716632, "lon": 39.2045042}, {"type": "node", "id": 223655173, "lat": -4.6695272, "lon": 39.2021854}, {"type": "node", "id": 244246672, "lat": 4.618889, "lon": 35.845278}, {"type": "node", "id": 244246673, "lat": 4.619444, "lon": 35.838611}, {"type": "node", "id": 244246674, "lat": 4.2340766, "lon": 33.9877616}, {"type": "node", "id": 244246675, "lat": 4.619167, "lon": 35.831944}, {"type": "node", "id": 244246677, "lat": 4.619167, "lon": 35.825}, {"type": "node", "id": 244246679, "lat": 4.618889, "lon": 35.8725}, {"type": "node", "id": 244246681, "lat": 4.619444, "lon": 35.865833}, {"type": "node", "id": 244246683, "lat": 4.619444, "lon": 35.858889}, {"type": "node", "id": 244246685, "lat": 4.619167, "lon": 35.852222}, {"type": "node", "id": 244246687, "lat": 4.619722, "lon": 35.899722}, {"type": "node", "id": 244246689, "lat": 4.619444, "lon": 35.892778}, {"type": "node", "id": 244246691, "lat": 4.619444, "lon": 35.886111}, {"type": "node", "id": 244246692, "lat": 4.281944, "lon": 34.056389, "tags": {"created_by": "JOSM"}}, {"type": "node", "id": 244246693, "lat": 4.619167, "lon": 35.879167}, {"type": "node", "id": 244246694, "lat": 4.288056, "lon": 34.063056, "tags": {"created_by": "JOSM"}}, {"type": "node", "id": 244246695, "lat": 4.619722, "lon": 35.926667}, {"type": "node", "id": 244246701, "lat": 4.295, "lon": 34.069722, "tags": {"created_by": "JOSM"}}, {"type": "node", "id": 244246702, "lat": 4.619722, "lon": 35.92}, {"type": "node", "id": 244246703, "lat": 4.301111, "lon": 34.076389, "tags": {"created_by": "JOSM"}}, {"type": "node", "id": 244246704, "lat": 4.619444, "lon": 35.913333}, {"type": "node", "id": 244246705, "lat": 4.3075, "lon": 34.082778, "tags": {"created_by": "JOSM"}}, {"type": "node", "id": 244246706, "lat": 4.619167, "lon": 35.906389}, {"type": "node", "id": 244246707, "lat": 4.314444, "lon": 34.089444, "tags": {"created_by": "JOSM"}}, {"type": "node", "id": 244246708, "lat": 4.618333, "lon": 35.73}, {"type": "node", "id": 244246709, "lat": 4.3275, "lon": 34.102778, "tags": {"created_by": "JOSM"}}, {"type": "node", "id": 244246710, "lat": 4.618611, "lon": 35.736944}, {"type": "node", "id": 244246711, "lat": 4.320556, "lon": 34.096111, "tags": {"created_by": "JOSM"}}, {"type": "node", "id": 244246712, "lat": 4.618056, "lon": 35.716667}, {"type": "node", "id": 244246716, "lat": 4.340833, "lon": 34.116111, "tags": {"created_by": "JOSM"}}, {"type": "node", "id": 244246717, "lat": 4.618333, "lon": 35.723333}, {"type": "node", "id": 244246718, "lat": 4.333889, "lon": 34.109444, "tags": {"created_by": "JOSM"}}, {"type": "node", "id": 244246719, "lat": 4.618611, "lon": 35.757222}, {"type": "node", "id": 244246720, "lat": 4.353889, "lon": 34.129167, "tags": {"created_by": "JOSM"}}, {"type": "node", "id": 244246721, "lat": 4.618611, "lon": 35.763889}, {"type": "node", "id": 244246722, "lat": 4.347222, "lon": 34.122778, "tags": {"created_by": "JOSM"}}, {"type": "node", "id": 244246723, "lat": 4.618056, "lon": 35.743611}, {"type": "node", "id": 244246724, "lat": 4.367222, "lon": 34.1425, "tags": {"created_by": "JOSM"}}, {"type": "node", "id": 244246725, "lat": 4.618333, "lon": 35.750556}, {"type": "node", "id": 244246726, "lat": 4.360278, "lon": 34.135833, "tags": {"created_by": "JOSM"}}, {"type": "node", "id": 244246727, "lat": 4.618611, "lon": 35.784444}, {"type": "node", "id": 244246731, "lat": 4.379722, "lon": 34.155833, "tags": {"created_by": "JOSM"}}, {"type": "node", "id": 244246732, "lat": 4.618889, "lon": 35.791111}, {"type": "node", "id": 244246733, "lat": 4.373333, "lon": 34.149167, "tags": {"created_by": "JOSM"}}, {"type": "node", "id": 244246734, "lat": 4.618889, "lon": 35.770833}, {"type": "node", "id": 244246735, "lat": 4.392778, "lon": 34.168889, "tags": {"created_by": "JOSM"}}, {"type": "node", "id": 244246736, "lat": 4.618333, "lon": 35.7775}, {"type": "node", "id": 244246737, "lat": 4.386667, "lon": 34.1625, "tags": {"created_by": "JOSM"}}, {"type": "node", "id": 244246738, "lat": 4.618611, "lon": 35.811389}, {"type": "node", "id": 244246739, "lat": 4.406111, "lon": 34.182222, "tags": {"created_by": "JOSM"}}, {"type": "node", "id": 244246740, "lat": 4.618889, "lon": 35.818333}, {"type": "node", "id": 244246741, "lat": 4.399722, "lon": 34.175556, "tags": {"created_by": "JOSM"}}, {"type": "node", "id": 244246742, "lat": 4.618889, "lon": 35.798056}, {"type": "node", "id": 244246743, "lat": 4.419167, "lon": 34.195556, "tags": {"created_by": "JOSM"}}, {"type": "node", "id": 244246751, "lat": 4.619167, "lon": 35.804722}, {"type": "node", "id": 244246761, "lat": 4.413056, "lon": 34.188889, "tags": {"created_by": "JOSM"}}, {"type": "node", "id": 244246770, "lat": 4.439444, "lon": 34.215278, "tags": {"created_by": "JOSM"}}, {"type": "node", "id": 244246780, "lat": 4.445556, "lon": 34.221944, "tags": {"created_by": "JOSM"}}, {"type": "node", "id": 244246784, "lat": 4.426111, "lon": 34.202222, "tags": {"created_by": "JOSM"}}, {"type": "node", "id": 244246785, "lat": 4.4325, "lon": 34.208611, "tags": {"created_by": "JOSM"}}, {"type": "node", "id": 244246786, "lat": 4.465, "lon": 34.241944, "tags": {"created_by": "JOSM"}}, {"type": "node", "id": 244246787, "lat": 4.471944, "lon": 34.248333, "tags": {"created_by": "JOSM"}}, {"type": "node", "id": 244246788, "lat": 4.4525, "lon": 34.228611, "tags": {"created_by": "JOSM"}}, {"type": "node", "id": 244246789, "lat": 4.458889, "lon": 34.235278, "tags": {"created_by": "JOSM"}}, {"type": "node", "id": 244246790, "lat": 4.491389, "lon": 34.268333, "tags": {"created_by": "JOSM"}}, {"type": "node", "id": 244246791, "lat": 4.498333, "lon": 34.275, "tags": {"created_by": "JOSM"}}, {"type": "node", "id": 244246792, "lat": 4.478056, "lon": 34.255, "tags": {"created_by": "JOSM"}}, {"type": "node", "id": 244246793, "lat": 4.485, "lon": 34.261667, "tags": {"created_by": "JOSM"}}, {"type": "node", "id": 244246794, "lat": 4.517778, "lon": 34.294722, "tags": {"created_by": "JOSM"}}, {"type": "node", "id": 244246795, "lat": 4.524722, "lon": 34.301389, "tags": {"created_by": "JOSM"}}, {"type": "node", "id": 244246800, "lat": 4.504444, "lon": 34.281667, "tags": {"created_by": "JOSM"}}, {"type": "node", "id": 244246801, "lat": 4.511389, "lon": 34.288056, "tags": {"created_by": "JOSM"}}, {"type": "node", "id": 244246802, "lat": 4.62, "lon": 35.933611}, {"type": "node", "id": 244246803, "lat": 4.550278, "lon": 34.327778, "tags": {"created_by": "JOSM"}}, {"type": "node", "id": 244246804, "lat": 4.619444, "lon": 35.938333}, {"type": "node", "id": 244246805, "lat": 4.544167, "lon": 34.321389, "tags": {"created_by": "JOSM"}}, {"type": "node", "id": 244246806, "lat": 4.537222, "lon": 34.314722, "tags": {"created_by": "JOSM"}}, {"type": "node", "id": 244246807, "lat": 4.530833, "lon": 34.308056, "tags": {"created_by": "JOSM"}}, {"type": "node", "id": 244246808, "lat": 4.576667, "lon": 34.354444, "tags": {"created_by": "JOSM"}}, {"type": "node", "id": 244246809, "lat": 4.570278, "lon": 34.347778, "tags": {"created_by": "JOSM"}}, {"type": "node", "id": 244246810, "lat": 4.563611, "lon": 34.341111, "tags": {"created_by": "JOSM"}}, {"type": "node", "id": 244246811, "lat": 4.557222, "lon": 34.334444, "tags": {"created_by": "JOSM"}}, {"type": "node", "id": 244246812, "lat": 4.603056, "lon": 34.380833, "tags": {"created_by": "JOSM"}}, {"type": "node", "id": 244246813, "lat": 4.596667, "lon": 34.374167, "tags": {"created_by": "JOSM"}}, {"type": "node", "id": 244246814, "lat": 4.589722, "lon": 34.3675, "tags": {"created_by": "JOSM"}}, {"type": "node", "id": 244246815, "lat": 4.583611, "lon": 34.361111, "tags": {"created_by": "JOSM"}}, {"type": "node", "id": 244246816, "lat": 4.610556, "lon": 34.407778, "tags": {"created_by": "JOSM"}}, {"type": "node", "id": 244246817, "lat": 4.610278, "lon": 34.401111, "tags": {"created_by": "JOSM"}}, {"type": "node", "id": 244246818, "lat": 4.61, "lon": 34.394167, "tags": {"created_by": "JOSM"}}, {"type": "node", "id": 244246819, "lat": 4.61, "lon": 34.3875, "tags": {"created_by": "JOSM"}}, {"type": "node", "id": 244246820, "lat": 4.610556, "lon": 34.441667, "tags": {"created_by": "JOSM"}}, {"type": "node", "id": 244246821, "lat": 4.610833, "lon": 34.448333, "tags": {"created_by": "JOSM"}}, {"type": "node", "id": 244246822, "lat": 4.610278, "lon": 34.455278, "tags": {"created_by": "JOSM"}}, {"type": "node", "id": 244246823, "lat": 4.610556, "lon": 34.461944, "tags": {"created_by": "JOSM"}}, {"type": "node", "id": 244246824, "lat": 4.610556, "lon": 34.414444, "tags": {"created_by": "JOSM"}}, {"type": "node", "id": 244246825, "lat": 4.61, "lon": 34.421389, "tags": {"created_by": "JOSM"}}, {"type": "node", "id": 244246826, "lat": 4.610278, "lon": 34.428056, "tags": {"created_by": "JOSM"}}, {"type": "node", "id": 244246827, "lat": 4.610556, "lon": 34.435, "tags": {"created_by": "JOSM"}}, {"type": "node", "id": 244246828, "lat": 4.610556, "lon": 34.495833, "tags": {"created_by": "JOSM"}}, {"type": "node", "id": 244246829, "lat": 4.610833, "lon": 34.502778, "tags": {"created_by": "JOSM"}}, {"type": "node", "id": 244246830, "lat": 4.611111, "lon": 34.509444, "tags": {"created_by": "JOSM"}}, {"type": "node", "id": 244246831, "lat": 4.611111, "lon": 34.516389, "tags": {"created_by": "JOSM"}}, {"type": "node", "id": 244246832, "lat": 4.610556, "lon": 34.468889, "tags": {"created_by": "JOSM"}}, {"type": "node", "id": 244246833, "lat": 4.610833, "lon": 34.475556, "tags": {"created_by": "JOSM"}}, {"type": "node", "id": 244246834, "lat": 4.611111, "lon": 34.482222, "tags": {"created_by": "JOSM"}}, {"type": "node", "id": 244246835, "lat": 4.610556, "lon": 34.489167, "tags": {"created_by": "JOSM"}}, {"type": "node", "id": 244246836, "lat": 4.610833, "lon": 34.556944, "tags": {"created_by": "JOSM"}}, {"type": "node", "id": 244246837, "lat": 4.611389, "lon": 34.550278, "tags": {"created_by": "JOSM"}}, {"type": "node", "id": 244246838, "lat": 4.611111, "lon": 34.570556, "tags": {"created_by": "JOSM"}}, {"type": "node", "id": 244246854, "lat": 4.611111, "lon": 34.563889, "tags": {"created_by": "JOSM"}}, {"type": "node", "id": 244246855, "lat": 4.610833, "lon": 34.529722, "tags": {"created_by": "JOSM"}}, {"type": "node", "id": 244246856, "lat": 4.610556, "lon": 34.523056, "tags": {"created_by": "JOSM"}}, {"type": "node", "id": 244246857, "lat": 4.611111, "lon": 34.543333, "tags": {"created_by": "JOSM"}}, {"type": "node", "id": 244246858, "lat": 4.611111, "lon": 34.536667, "tags": {"created_by": "JOSM"}}, {"type": "node", "id": 244246859, "lat": 4.611667, "lon": 34.611111, "tags": {"created_by": "JOSM"}}, {"type": "node", "id": 244246860, "lat": 4.611389, "lon": 34.604444, "tags": {"created_by": "JOSM"}}, {"type": "node", "id": 244246861, "lat": 4.611111, "lon": 34.624722, "tags": {"created_by": "JOSM"}}, {"type": "node", "id": 244246862, "lat": 4.611667, "lon": 34.618056, "tags": {"created_by": "JOSM"}}, {"type": "node", "id": 244246863, "lat": 4.611667, "lon": 34.584167, "tags": {"created_by": "JOSM"}}, {"type": "node", "id": 244246864, "lat": 4.611389, "lon": 34.577222, "tags": {"created_by": "JOSM"}}, {"type": "node", "id": 244246865, "lat": 4.611111, "lon": 34.597778, "tags": {"created_by": "JOSM"}}, {"type": "node", "id": 244246866, "lat": 4.611111, "lon": 34.590833, "tags": {"created_by": "JOSM"}}, {"type": "node", "id": 244246867, "lat": 4.611667, "lon": 34.672222, "tags": {"created_by": "JOSM"}}, {"type": "node", "id": 244246868, "lat": 4.611944, "lon": 34.678889, "tags": {"created_by": "JOSM"}}, {"type": "node", "id": 244246869, "lat": 4.611389, "lon": 34.658611, "tags": {"created_by": "JOSM"}}, {"type": "node", "id": 244246870, "lat": 4.611667, "lon": 34.665556, "tags": {"created_by": "JOSM"}}, {"type": "node", "id": 244246871, "lat": 4.611667, "lon": 34.645, "tags": {"created_by": "JOSM"}}, {"type": "node", "id": 244246872, "lat": 4.611111, "lon": 34.651944, "tags": {"created_by": "JOSM"}}, {"type": "node", "id": 244246873, "lat": 4.611389, "lon": 34.631667, "tags": {"created_by": "JOSM"}}, {"type": "node", "id": 244246874, "lat": 4.611667, "lon": 34.638333, "tags": {"created_by": "JOSM"}}, {"type": "node", "id": 244246876, "lat": 4.611944, "lon": 34.726389, "tags": {"created_by": "JOSM"}}, {"type": "node", "id": 244246877, "lat": 4.611944, "lon": 34.733333, "tags": {"created_by": "JOSM"}}, {"type": "node", "id": 244246878, "lat": 4.612222, "lon": 34.713056, "tags": {"created_by": "JOSM"}}, {"type": "node", "id": 244246879, "lat": 4.611667, "lon": 34.719722, "tags": {"created_by": "JOSM"}}, {"type": "node", "id": 244246880, "lat": 4.611667, "lon": 34.699444, "tags": {"created_by": "JOSM"}}, {"type": "node", "id": 244246881, "lat": 4.611944, "lon": 34.706111, "tags": {"created_by": "JOSM"}}, {"type": "node", "id": 244246882, "lat": 4.611389, "lon": 34.685833, "tags": {"created_by": "JOSM"}}, {"type": "node", "id": 244246883, "lat": 4.611667, "lon": 34.6925, "tags": {"created_by": "JOSM"}}, {"type": "node", "id": 244246884, "lat": 4.611944, "lon": 34.7875, "tags": {"created_by": "JOSM"}}, {"type": "node", "id": 244246885, "lat": 4.6125, "lon": 34.780833, "tags": {"created_by": "JOSM"}}, {"type": "node", "id": 244246886, "lat": 4.6125, "lon": 34.773889, "tags": {"created_by": "JOSM"}}, {"type": "node", "id": 244246887, "lat": 4.612222, "lon": 34.767222, "tags": {"created_by": "JOSM"}}, {"type": "node", "id": 244246888, "lat": 4.611944, "lon": 34.760278, "tags": {"created_by": "JOSM"}}, {"type": "node", "id": 244246889, "lat": 4.611944, "lon": 34.753611, "tags": {"created_by": "JOSM"}}, {"type": "node", "id": 244246890, "lat": 4.612222, "lon": 34.746944, "tags": {"created_by": "JOSM"}}, {"type": "node", "id": 244246891, "lat": 4.612222, "lon": 34.74, "tags": {"created_by": "JOSM"}}, {"type": "node", "id": 244246892, "lat": 4.612778, "lon": 34.841667, "tags": {"created_by": "JOSM"}}, {"type": "node", "id": 244246893, "lat": 4.6125, "lon": 34.835, "tags": {"created_by": "JOSM"}}, {"type": "node", "id": 244246894, "lat": 4.6125, "lon": 34.828333, "tags": {"created_by": "JOSM"}}, {"type": "node", "id": 244246895, "lat": 4.612222, "lon": 34.821389, "tags": {"created_by": "JOSM"}}, {"type": "node", "id": 244246896, "lat": 4.612778, "lon": 34.814722, "tags": {"created_by": "JOSM"}}, {"type": "node", "id": 244246897, "lat": 4.6125, "lon": 34.807778, "tags": {"created_by": "JOSM"}}, {"type": "node", "id": 244246898, "lat": 4.6125, "lon": 34.801111, "tags": {"created_by": "JOSM"}}, {"type": "node", "id": 244246899, "lat": 4.612222, "lon": 34.794444, "tags": {"created_by": "JOSM"}}, {"type": "node", "id": 244246900, "lat": 4.613056, "lon": 34.909444, "tags": {"created_by": "JOSM"}}, {"type": "node", "id": 244246901, "lat": 4.613056, "lon": 34.902778, "tags": {"created_by": "JOSM"}}, {"type": "node", "id": 244246904, "lat": 4.612778, "lon": 34.923056, "tags": {"created_by": "JOSM"}}, {"type": "node", "id": 244246905, "lat": 4.612778, "lon": 34.916389, "tags": {"created_by": "JOSM"}}, {"type": "node", "id": 244246906, "lat": 4.613056, "lon": 34.936667, "tags": {"created_by": "JOSM"}}, {"type": "node", "id": 244246907, "lat": 4.613056, "lon": 34.93, "tags": {"created_by": "JOSM"}}, {"type": "node", "id": 244246908, "lat": 4.612778, "lon": 34.950278, "tags": {"created_by": "JOSM"}}, {"type": "node", "id": 244246909, "lat": 4.613333, "lon": 34.943611, "tags": {"created_by": "JOSM"}}, {"type": "node", "id": 244246910, "lat": 4.6125, "lon": 34.855278, "tags": {"created_by": "JOSM"}}, {"type": "node", "id": 244246911, "lat": 4.612778, "lon": 34.848611, "tags": {"created_by": "JOSM"}}, {"type": "node", "id": 244246912, "lat": 4.612778, "lon": 34.868889, "tags": {"created_by": "JOSM"}}, {"type": "node", "id": 244246913, "lat": 4.612778, "lon": 34.862222, "tags": {"created_by": "JOSM"}}, {"type": "node", "id": 244246914, "lat": 4.6125, "lon": 34.8825, "tags": {"created_by": "JOSM"}}, {"type": "node", "id": 244246915, "lat": 4.613056, "lon": 34.875556, "tags": {"created_by": "JOSM"}}, {"type": "node", "id": 244246916, "lat": 4.612778, "lon": 34.896111, "tags": {"created_by": "JOSM"}}, {"type": "node", "id": 244246917, "lat": 4.612778, "lon": 34.889167, "tags": {"created_by": "JOSM"}}, {"type": "node", "id": 244246918, "lat": 4.613889, "lon": 35.011389, "tags": {"created_by": "JOSM"}}, {"type": "node", "id": 244246919, "lat": 4.613333, "lon": 35.018056, "tags": {"created_by": "JOSM"}}, {"type": "node", "id": 244246920, "lat": 4.613611, "lon": 35.025, "tags": {"created_by": "JOSM"}}, {"type": "node", "id": 244246921, "lat": 4.613611, "lon": 35.031667, "tags": {"created_by": "JOSM"}}, {"type": "node", "id": 244246922, "lat": 4.613889, "lon": 35.038333, "tags": {"created_by": "JOSM"}}, {"type": "node", "id": 244246923, "lat": 4.613889, "lon": 35.045278, "tags": {"created_by": "JOSM"}}, {"type": "node", "id": 244246924, "lat": 4.613611, "lon": 35.051944, "tags": {"created_by": "JOSM"}}, {"type": "node", "id": 244246925, "lat": 4.613611, "lon": 35.058889, "tags": {"created_by": "JOSM"}}, {"type": "node", "id": 244246926, "lat": 4.613056, "lon": 34.956944, "tags": {"created_by": "JOSM"}}, {"type": "node", "id": 244246927, "lat": 4.613333, "lon": 34.963889, "tags": {"created_by": "JOSM"}}, {"type": "node", "id": 244246928, "lat": 4.613333, "lon": 34.970556, "tags": {"created_by": "JOSM"}}, {"type": "node", "id": 244246929, "lat": 4.613611, "lon": 34.9775, "tags": {"created_by": "JOSM"}}, {"type": "node", "id": 244246930, "lat": 4.613056, "lon": 34.984167, "tags": {"created_by": "JOSM"}}, {"type": "node", "id": 244246931, "lat": 4.613333, "lon": 34.990833, "tags": {"created_by": "JOSM"}}, {"type": "node", "id": 244246932, "lat": 4.613333, "lon": 34.997778, "tags": {"created_by": "JOSM"}}, {"type": "node", "id": 244246933, "lat": 4.613611, "lon": 35.004444, "tags": {"created_by": "JOSM"}}, {"type": "node", "id": 244246934, "lat": 4.614444, "lon": 35.140278, "tags": {"created_by": "JOSM"}}, {"type": "node", "id": 244246935, "lat": 4.614444, "lon": 35.133333, "tags": {"created_by": "JOSM"}}, {"type": "node", "id": 244246936, "lat": 4.614167, "lon": 35.126667, "tags": {"created_by": "JOSM"}}, {"type": "node", "id": 244246937, "lat": 4.613889, "lon": 35.119722, "tags": {"created_by": "JOSM"}}, {"type": "node", "id": 244246940, "lat": 4.614444, "lon": 35.167222, "tags": {"created_by": "JOSM"}}, {"type": "node", "id": 244246941, "lat": 4.614444, "lon": 35.160556, "tags": {"created_by": "JOSM"}}, {"type": "node", "id": 244246942, "lat": 4.614167, "lon": 35.153611, "tags": {"created_by": "JOSM"}}, {"type": "node", "id": 244246943, "lat": 4.613889, "lon": 35.146944, "tags": {"created_by": "JOSM"}}, {"type": "node", "id": 244246944, "lat": 4.613611, "lon": 35.085833, "tags": {"created_by": "JOSM"}}, {"type": "node", "id": 244246945, "lat": 4.614167, "lon": 35.079167, "tags": {"created_by": "JOSM"}}, {"type": "node", "id": 244246946, "lat": 4.614167, "lon": 35.072222, "tags": {"created_by": "JOSM"}}, {"type": "node", "id": 244246947, "lat": 4.613889, "lon": 35.065556, "tags": {"created_by": "JOSM"}}, {"type": "node", "id": 244246948, "lat": 4.614444, "lon": 35.113056, "tags": {"created_by": "JOSM"}}, {"type": "node", "id": 244246949, "lat": 4.614167, "lon": 35.106111, "tags": {"created_by": "JOSM"}}, {"type": "node", "id": 244246950, "lat": 4.614167, "lon": 35.099444, "tags": {"created_by": "JOSM"}}, {"type": "node", "id": 244246951, "lat": 4.613889, "lon": 35.092778, "tags": {"created_by": "JOSM"}}, {"type": "node", "id": 244246952, "lat": 4.615278, "lon": 35.241944, "tags": {"created_by": "JOSM"}}, {"type": "node", "id": 244246953, "lat": 4.614722, "lon": 35.248611, "tags": {"created_by": "JOSM"}}, {"type": "node", "id": 244246954, "lat": 4.614722, "lon": 35.228333, "tags": {"created_by": "JOSM"}}, {"type": "node", "id": 244246955, "lat": 4.615, "lon": 35.235, "tags": {"created_by": "JOSM"}}, {"type": "node", "id": 244246956, "lat": 4.615278, "lon": 35.268889, "tags": {"created_by": "JOSM"}}, {"type": "node", "id": 244246957, "lat": 4.615556, "lon": 35.275833, "tags": {"created_by": "JOSM"}}, {"type": "node", "id": 244246958, "lat": 4.615, "lon": 35.255556, "tags": {"created_by": "JOSM"}}, {"type": "node", "id": 244246959, "lat": 4.615, "lon": 35.262222, "tags": {"created_by": "JOSM"}}, {"type": "node", "id": 244246960, "lat": 4.614444, "lon": 35.1875, "tags": {"created_by": "JOSM"}}, {"type": "node", "id": 244246961, "lat": 4.614722, "lon": 35.194444, "tags": {"created_by": "JOSM"}}, {"type": "node", "id": 244246962, "lat": 4.614722, "lon": 35.174167, "tags": {"created_by": "JOSM"}}, {"type": "node", "id": 244246963, "lat": 4.614167, "lon": 35.180833, "tags": {"created_by": "JOSM"}}, {"type": "node", "id": 244246964, "lat": 4.614444, "lon": 35.214722, "tags": {"created_by": "JOSM"}}, {"type": "node", "id": 244246965, "lat": 4.614722, "lon": 35.221389, "tags": {"created_by": "JOSM"}}, {"type": "node", "id": 244246966, "lat": 4.614722, "lon": 35.201111, "tags": {"created_by": "JOSM"}}, {"type": "node", "id": 244246967, "lat": 4.615, "lon": 35.208056, "tags": {"created_by": "JOSM"}}, {"type": "node", "id": 244246968, "lat": 4.616111, "lon": 35.370833, "tags": {"created_by": "JOSM"}}, {"type": "node", "id": 244246976, "lat": 4.615833, "lon": 35.363889, "tags": {"created_by": "JOSM"}}, {"type": "node", "id": 244246977, "lat": 4.615556, "lon": 35.384167, "tags": {"created_by": "JOSM"}}, {"type": "node", "id": 244246978, "lat": 4.615556, "lon": 35.3775, "tags": {"created_by": "JOSM"}}, {"type": "node", "id": 244246979, "lat": 4.615833, "lon": 35.343611, "tags": {"created_by": "JOSM"}}, {"type": "node", "id": 244246980, "lat": 4.615833, "lon": 35.336944, "tags": {"created_by": "JOSM"}}, {"type": "node", "id": 244246981, "lat": 4.615556, "lon": 35.357222, "tags": {"created_by": "JOSM"}}, {"type": "node", "id": 244246982, "lat": 4.615556, "lon": 35.350278, "tags": {"created_by": "JOSM"}}, {"type": "node", "id": 244246983, "lat": 4.615278, "lon": 35.316389, "tags": {"created_by": "JOSM"}}, {"type": "node", "id": 244246984, "lat": 4.615833, "lon": 35.309722, "tags": {"created_by": "JOSM"}}, {"type": "node", "id": 244246985, "lat": 4.615556, "lon": 35.33, "tags": {"created_by": "JOSM"}}, {"type": "node", "id": 244246986, "lat": 4.615278, "lon": 35.323333, "tags": {"created_by": "JOSM"}}, {"type": "node", "id": 244246987, "lat": 4.615278, "lon": 35.289444, "tags": {"created_by": "JOSM"}}, {"type": "node", "id": 244246988, "lat": 4.615, "lon": 35.2825, "tags": {"created_by": "JOSM"}}, {"type": "node", "id": 244246989, "lat": 4.615556, "lon": 35.302778, "tags": {"created_by": "JOSM"}}, {"type": "node", "id": 244246990, "lat": 4.615278, "lon": 35.296111, "tags": {"created_by": "JOSM"}}, {"type": "node", "id": 244246991, "lat": 4.616667, "lon": 35.4725, "tags": {"created_by": "JOSM"}}, {"type": "node", "id": 244246992, "lat": 4.616389, "lon": 35.479167, "tags": {"created_by": "JOSM"}}, {"type": "node", "id": 244246993, "lat": 4.616389, "lon": 35.486111, "tags": {"created_by": "JOSM"}}, {"type": "node", "id": 244246994, "lat": 4.616667, "lon": 35.492778, "tags": {"created_by": "JOSM"}}, {"type": "node", "id": 244246995, "lat": 4.616111, "lon": 35.445278, "tags": {"created_by": "JOSM"}}, {"type": "node", "id": 244246996, "lat": 4.616111, "lon": 35.452222, "tags": {"created_by": "JOSM"}}, {"type": "node", "id": 244246997, "lat": 4.616389, "lon": 35.458889, "tags": {"created_by": "JOSM"}}, {"type": "node", "id": 244246998, "lat": 4.616667, "lon": 35.465556, "tags": {"created_by": "JOSM"}}, {"type": "node", "id": 244246999, "lat": 4.615833, "lon": 35.418056, "tags": {"created_by": "JOSM"}}, {"type": "node", "id": 244247000, "lat": 4.616111, "lon": 35.425, "tags": {"created_by": "JOSM"}}, {"type": "node", "id": 244247001, "lat": 4.616389, "lon": 35.431667, "tags": {"created_by": "JOSM"}}, {"type": "node", "id": 244247002, "lat": 4.616389, "lon": 35.438611, "tags": {"created_by": "JOSM"}}, {"type": "node", "id": 244247003, "lat": 4.615833, "lon": 35.391111, "tags": {"created_by": "JOSM"}}, {"type": "node", "id": 244247004, "lat": 4.616111, "lon": 35.397778, "tags": {"created_by": "JOSM"}}, {"type": "node", "id": 244247005, "lat": 4.616111, "lon": 35.404722, "tags": {"created_by": "JOSM"}}, {"type": "node", "id": 244247006, "lat": 4.615833, "lon": 35.411389, "tags": {"created_by": "JOSM"}}, {"type": "node", "id": 244247027, "lat": 4.616944, "lon": 35.506389, "tags": {"created_by": "JOSM"}}, {"type": "node", "id": 244247028, "lat": 4.616944, "lon": 35.499444, "tags": {"created_by": "JOSM"}}, {"type": "node", "id": 244247029, "lat": 4.618333, "lon": 35.703056}, {"type": "node", "id": 244247030, "lat": 4.617778, "lon": 35.709722}, {"type": "node", "id": 244247031, "lat": 4.618056, "lon": 35.689444, "tags": {"created_by": "JOSM"}}, {"type": "node", "id": 244247032, "lat": 4.618056, "lon": 35.696111, "tags": {"created_by": "JOSM"}}, {"type": "node", "id": 244247033, "lat": 4.6175, "lon": 35.675833, "tags": {"created_by": "JOSM"}}, {"type": "node", "id": 244247034, "lat": 4.617778, "lon": 35.682778, "tags": {"created_by": "JOSM"}}, {"type": "node", "id": 244247035, "lat": 4.617778, "lon": 35.662222, "tags": {"created_by": "JOSM"}}, {"type": "node", "id": 244247036, "lat": 4.618056, "lon": 35.669167, "tags": {"created_by": "JOSM"}}, {"type": "node", "id": 244247037, "lat": 4.6175, "lon": 35.648611, "tags": {"created_by": "JOSM"}}, {"type": "node", "id": 244247038, "lat": 4.617778, "lon": 35.655556, "tags": {"created_by": "JOSM"}}, {"type": "node", "id": 244247043, "lat": 4.617778, "lon": 35.635278, "tags": {"created_by": "JOSM"}}, {"type": "node", "id": 244247044, "lat": 4.617222, "lon": 35.641944, "tags": {"created_by": "JOSM"}}, {"type": "node", "id": 244247045, "lat": 4.6175, "lon": 35.621667, "tags": {"created_by": "JOSM"}}, {"type": "node", "id": 244247046, "lat": 4.6175, "lon": 35.628333, "tags": {"created_by": "JOSM"}}, {"type": "node", "id": 244247052, "lat": 4.617222, "lon": 35.614722, "tags": {"created_by": "JOSM"}}, {"type": "node", "id": 244248252, "lat": 4.6178071, "lon": 35.6081289, "tags": {"created_by": "JOSM"}}, {"type": "node", "id": 348191013, "lat": -2.1658178, "lon": 36.1046967}, {"type": "node", "id": 348191063, "lat": -2.8961073, "lon": 37.4063076}, {"type": "node", "id": 348191076, "lat": -3.4616261, "lon": 37.5856144}, {"type": "node", "id": 348191078, "lat": -3.4620202, "lon": 37.5892536}, {"type": "node", "id": 348191079, "lat": -3.4614119, "lon": 37.607042}, {"type": "node", "id": 348191080, "lat": -3.4659098, "lon": 37.6177322}, {"type": "node", "id": 348191081, "lat": -3.4716499, "lon": 37.6217019}, {"type": "node", "id": 348191082, "lat": -3.4800459, "lon": 37.6261694}, {"type": "node", "id": 348191083, "lat": -3.49742, "lon": 37.60832}, {"type": "node", "id": 348191084, "lat": -3.5064, "lon": 37.60469}, {"type": "node", "id": 348191085, "lat": -3.51515, "lon": 37.6054}, {"type": "node", "id": 348191086, "lat": -3.51997, "lon": 37.60839}, {"type": "node", "id": 348191088, "lat": -3.51995, "lon": 37.61687}, {"type": "node", "id": 348191089, "lat": -3.51205, "lon": 37.63975}, {"type": "node", "id": 348191090, "lat": -3.50484, "lon": 37.66539}, {"type": "node", "id": 348191091, "lat": -3.50456, "lon": 37.6789}, {"type": "node", "id": 348191092, "lat": -3.50889, "lon": 37.69289}, {"type": "node", "id": 348191093, "lat": -3.51923, "lon": 37.70003}, {"type": "node", "id": 348191094, "lat": -3.53568, "lon": 37.73766}, {"type": "node", "id": 348191095, "lat": -3.54462, "lon": 37.74937}, {"type": "node", "id": 348191096, "lat": -3.55404, "lon": 37.75467}, {"type": "node", "id": 348191097, "lat": -3.56415, "lon": 37.75814}, {"type": "node", "id": 348191098, "lat": -3.6058302, "lon": 37.7619235}, {"type": "node", "id": 348191100, "lat": -3.68916, "lon": 37.81128}, {"type": "node", "id": 348191106, "lat": -3.8153875, "lon": 37.9901687}, {"type": "node", "id": 348191121, "lat": -3.3112602, "lon": 37.712127}, {"type": "node", "id": 348191132, "lat": -4.0848789, "lon": 38.3676061}, {"type": "node", "id": 348191135, "lat": -4.1576505, "lon": 38.4709086}, {"type": "node", "id": 348191155, "lat": -1.0, "lon": 33.9333611, "tags": {"note": "Boundary point is due south of the westernmost point of Pyramid Island and on exactly 1 degree south latitude."}}, {"type": "node", "id": 348310832, "lat": 10.997222, "lon": 42.967222}, {"type": "node", "id": 348310837, "lat": 10.98441, "lon": 42.96164}, {"type": "node", "id": 348312243, "lat": 11.4119034, "lon": 43.2280068}, {"type": "node", "id": 348353044, "lat": 10.9468917, "lon": 42.929985}, {"type": "node", "id": 348353050, "lat": 10.9128443, "lon": 42.9093387}, {"type": "node", "id": 348353054, "lat": 10.8704813, "lon": 42.875213}, {"type": "node", "id": 348353060, "lat": 10.8607731, "lon": 42.8693292}, {"type": "node", "id": 348353068, "lat": 10.836944, "lon": 42.8549141}, {"type": "node", "id": 348353073, "lat": 10.8219404, "lon": 42.8407931}, {"type": "node", "id": 348353078, "lat": 10.7628088, "lon": 42.7972534}, {"type": "node", "id": 348353083, "lat": 10.7216226, "lon": 42.7657753}, {"type": "node", "id": 348353090, "lat": 10.6763177, "lon": 42.7384159}, {"type": "node", "id": 348353094, "lat": 10.6510176, "lon": 42.7219414}, {"type": "node", "id": 348353099, "lat": 10.6474874, "lon": 42.7189996}, {"type": "node", "id": 348353105, "lat": 10.6221873, "lon": 42.7098797}, {"type": "node", "id": 348353111, "lat": 10.5780592, "lon": 42.708703}, {"type": "node", "id": 348353117, "lat": 10.5336369, "lon": 42.7198821}, {"type": "node", "id": 348353122, "lat": 10.5287063, "lon": 42.7230358}, {"type": "node", "id": 348353128, "lat": 10.5266353, "lon": 42.7324498}, {"type": "node", "id": 348353133, "lat": 10.5207986, "lon": 42.7403575}, {"type": "node", "id": 348353141, "lat": 10.5119494, "lon": 42.7471356}, {"type": "node", "id": 348353148, "lat": 10.4720341, "lon": 42.7569262}, {"type": "node", "id": 348353155, "lat": 10.4564069, "lon": 42.7631394}, {"type": "node", "id": 348353159, "lat": 10.4036885, "lon": 42.7921345}, {"type": "node", "id": 348353161, "lat": 10.3517233, "lon": 42.8051258}, {"type": "node", "id": 348353163, "lat": 10.3238579, "lon": 42.8156695}, {"type": "node", "id": 348353165, "lat": 10.2779176, "lon": 42.832803}, {"type": "node", "id": 348353174, "lat": 10.2396968, "lon": 42.8552083}, {"type": "node", "id": 348353178, "lat": 10.2289648, "lon": 42.859727}, {"type": "node", "id": 348353180, "lat": 10.1896995, "lon": 42.8873443}, {"type": "node", "id": 348353182, "lat": 10.1618743, "lon": 42.9125309}, {"type": "node", "id": 348353185, "lat": 10.1333295, "lon": 42.9417953}, {"type": "node", "id": 348353187, "lat": 10.1143796, "lon": 42.9576269}, {"type": "node", "id": 348353193, "lat": 10.1021461, "lon": 42.9698603}, {"type": "node", "id": 348353202, "lat": 10.0932708, "lon": 42.9736983}, {"type": "node", "id": 348353209, "lat": 10.0836759, "lon": 42.9974456}, {"type": "node", "id": 348353217, "lat": 10.0721621, "lon": 43.0084798}, {"type": "node", "id": 348353228, "lat": 10.0601684, "lon": 43.0161557}, {"type": "node", "id": 348353231, "lat": 10.0510533, "lon": 43.0247911}, {"type": "node", "id": 348353233, "lat": 10.0404989, "lon": 43.0293487}, {"type": "node", "id": 348353235, "lat": 10.0337825, "lon": 43.0358252}, {"type": "node", "id": 348353237, "lat": 9.9663784, "lon": 43.062451}, {"type": "node", "id": 348353239, "lat": 9.9611012, "lon": 43.0655694}, {"type": "node", "id": 348353242, "lat": 9.9080894, "lon": 43.0861984}, {"type": "node", "id": 348353244, "lat": 9.9042515, "lon": 43.0902762}, {"type": "node", "id": 348353246, "lat": 9.8951363, "lon": 43.1022698}, {"type": "node", "id": 348353250, "lat": 9.8886598, "lon": 43.1161824}, {"type": "node", "id": 348353252, "lat": 9.8862864, "lon": 43.1291604}, {"type": "node", "id": 348353253, "lat": 9.8862864, "lon": 43.138341}, {"type": "node", "id": 348353254, "lat": 9.8928889, "lon": 43.1445662}, {"type": "node", "id": 348353255, "lat": 9.8989255, "lon": 43.1453208}, {"type": "node", "id": 348353256, "lat": 9.8992399, "lon": 43.1500369}, {"type": "node", "id": 348353257, "lat": 9.890751, "lon": 43.1623616}, {"type": "node", "id": 348353258, "lat": 9.8824411, "lon": 43.1825041}, {"type": "node", "id": 348353259, "lat": 9.8428969, "lon": 43.2569505}, {"type": "node", "id": 348353280, "lat": 9.5930577, "lon": 43.3433117}, {"type": "node", "id": 348353282, "lat": 9.5864787, "lon": 43.3520908}, {"type": "node", "id": 348353284, "lat": 9.5815895, "lon": 43.3600646}, {"type": "node", "id": 348353287, "lat": 9.5740585, "lon": 43.3700058}, {"type": "node", "id": 348353290, "lat": 9.5647246, "lon": 43.3786606}, {"type": "node", "id": 348353292, "lat": 9.5520162, "lon": 43.3997997}, {"type": "node", "id": 348353294, "lat": 9.5450315, "lon": 43.4056579}, {"type": "node", "id": 348353296, "lat": 9.5324139, "lon": 43.4101642}, {"type": "node", "id": 348353298, "lat": 9.5125862, "lon": 43.4139945}, {"type": "node", "id": 348353300, "lat": 9.4718043, "lon": 43.432245}, {"type": "node", "id": 348353303, "lat": 9.447098, "lon": 43.4392087}, {"type": "node", "id": 348353305, "lat": 9.4355116, "lon": 43.4500666}, {"type": "node", "id": 348353308, "lat": 9.4277782, "lon": 43.4551203}, {"type": "node", "id": 348353310, "lat": 9.4157664, "lon": 43.4635587}, {"type": "node", "id": 348353313, "lat": 9.4058824, "lon": 43.4805029}, {"type": "node", "id": 348353315, "lat": 9.396336, "lon": 43.4944735}, {"type": "node", "id": 348353318, "lat": 9.3815052, "lon": 43.5156989}, {"type": "node", "id": 348353320, "lat": 9.3787856, "lon": 43.5318606}, {"type": "node", "id": 348353323, "lat": 9.3766773, "lon": 43.5436577}, {"type": "node", "id": 348353326, "lat": 9.3724717, "lon": 43.551497}, {"type": "node", "id": 348353330, "lat": 9.3686609, "lon": 43.5685938}, {"type": "node", "id": 348353332, "lat": 9.3651592, "lon": 43.5795704}, {"type": "node", "id": 348353334, "lat": 9.3625123, "lon": 43.5857757}, {"type": "node", "id": 348353336, "lat": 9.3577062, "lon": 43.5999138}, {"type": "node", "id": 348353338, "lat": 9.3567242, "lon": 43.61538}, {"type": "node", "id": 348353341, "lat": 9.3561059, "lon": 43.6319099}, {"type": "node", "id": 348353343, "lat": 9.3567568, "lon": 43.6429276}, {"type": "node", "id": 348353345, "lat": 9.3404881, "lon": 43.6598095}, {"type": "node", "id": 348353347, "lat": 9.3309322, "lon": 43.6686286}, {"type": "node", "id": 348353350, "lat": 9.313407, "lon": 43.6858295}, {"type": "node", "id": 348353352, "lat": 9.2972897, "lon": 43.7024615}, {"type": "node", "id": 348353384, "lat": 9.2541263, "lon": 43.7446118}, {"type": "node", "id": 348353390, "lat": 9.2340978, "lon": 43.7645835}, {"type": "node", "id": 348353405, "lat": 9.2227324, "lon": 43.7765133}, {"type": "node", "id": 348353414, "lat": 9.1954818, "lon": 43.8034343}, {"type": "node", "id": 348353424, "lat": 9.1768204, "lon": 43.8220081}, {"type": "node", "id": 348353435, "lat": 9.1583358, "lon": 43.8405811}, {"type": "node", "id": 348353441, "lat": 9.134172, "lon": 43.8622099}, {"type": "node", "id": 348353445, "lat": 9.1170622, "lon": 43.8805992}, {"type": "node", "id": 348353456, "lat": 9.1010904, "lon": 43.8960953}, {"type": "node", "id": 348353470, "lat": 9.0516324, "lon": 43.9440309}, {"type": "node", "id": 348353472, "lat": 9.026278, "lon": 43.971644}, {"type": "node", "id": 348353475, "lat": 8.999778, "lon": 43.9966517}, {"type": "node", "id": 348353477, "lat": 8.9937649, "lon": 44.0161782}, {"type": "node", "id": 348353479, "lat": 8.9890437, "lon": 44.0326734}, {"type": "node", "id": 348353482, "lat": 8.9818599, "lon": 44.0539709}, {"type": "node", "id": 348353487, "lat": 8.9788762, "lon": 44.0629811}, {"type": "node", "id": 348353489, "lat": 8.9587537, "lon": 44.1238136}, {"type": "node", "id": 348353492, "lat": 8.9501931, "lon": 44.1501284}, {"type": "node", "id": 348353496, "lat": 8.9220376, "lon": 44.235265}, {"type": "node", "id": 348353498, "lat": 8.9114478, "lon": 44.270414}, {"type": "node", "id": 348353500, "lat": 8.8943873, "lon": 44.3210078}, {"type": "node", "id": 348353502, "lat": 8.874995, "lon": 44.3802386}, {"type": "node", "id": 348404507, "lat": 8.7726398, "lon": 44.689684}, {"type": "node", "id": 348404512, "lat": 8.5794232, "lon": 45.267553}, {"type": "node", "id": 348404516, "lat": 8.262866, "lon": 46.2247272}, {"type": "node", "id": 348404520, "lat": 8.0015542, "lon": 46.9931464}, {"type": "node", "id": 348404524, "lat": 8.0006638, "lon": 47.0136256}, {"type": "node", "id": 348404527, "lat": 7.9997734, "lon": 47.9823797}, {"type": "node", "id": 348404531, "lat": 7.5627685, "lon": 47.5588163}, {"type": "node", "id": 348404535, "lat": 7.3606344, "lon": 47.316366}, {"type": "node", "id": 348404559, "lat": 4.9458237, "lon": 44.9983473}, {"type": "node", "id": 348404564, "lat": 3.8928602, "lon": 41.8454774}, {"type": "node", "id": 348404568, "lat": 3.158622, "lon": 41.3244709}, {"type": "node", "id": 348404572, "lat": 3.1412366, "lon": 41.3120527}, {"type": "node", "id": 348404576, "lat": 2.8282984, "lon": 40.98918}, {"type": "node", "id": 348404585, "lat": -0.833591, "lon": 40.99344}, {"type": "node", "id": 348404589, "lat": -1.5985737, "lon": 41.5589115}, {"type": "node", "id": 348404593, "lat": 4.9233834, "lon": 44.9780113}, {"type": "node", "id": 348404596, "lat": 4.9267003, "lon": 44.9325221}, {"type": "node", "id": 348404600, "lat": 4.9229096, "lon": 44.9012482}, {"type": "node", "id": 348404603, "lat": 4.9290695, "lon": 44.7297159}, {"type": "node", "id": 348404610, "lat": 4.9233834, "lon": 44.6775928}, {"type": "node", "id": 348404620, "lat": 4.9328603, "lon": 44.6249959}, {"type": "node", "id": 348404623, "lat": 4.9257994, "lon": 44.5899236}, {"type": "node", "id": 348404625, "lat": 4.9257994, "lon": 44.5491729}, {"type": "node", "id": 348404628, "lat": 4.9409624, "lon": 44.3852221}, {"type": "node", "id": 348404630, "lat": 4.942384, "lon": 44.2018436}, {"type": "node", "id": 348404632, "lat": 4.9504394, "lon": 44.1539852}, {"type": "node", "id": 348404634, "lat": 4.9471224, "lon": 44.1227113}, {"type": "node", "id": 348404636, "lat": 4.9400147, "lon": 44.0786436}, {"type": "node", "id": 348404638, "lat": 4.9433317, "lon": 44.0317329}, {"type": "node", "id": 348404641, "lat": 4.9253255, "lon": 43.9379113}, {"type": "node", "id": 348404643, "lat": 4.9163224, "lon": 43.8900529}, {"type": "node", "id": 348404645, "lat": 4.9087409, "lon": 43.8455113}, {"type": "node", "id": 348404647, "lat": 4.9021071, "lon": 43.8090252}, {"type": "node", "id": 348404650, "lat": 4.8888394, "lon": 43.7895975}, {"type": "node", "id": 348404652, "lat": 4.8864701, "lon": 43.7559544}, {"type": "node", "id": 348404654, "lat": 4.8665686, "lon": 43.6825083}, {"type": "node", "id": 348404657, "lat": 4.8424024, "lon": 43.5811052}, {"type": "node", "id": 348404660, "lat": 4.8357686, "lon": 43.5702067}, {"type": "node", "id": 348404662, "lat": 4.8352947, "lon": 43.5522006}, {"type": "node", "id": 348404666, "lat": 4.794544, "lon": 43.4346867}, {"type": "node", "id": 348404668, "lat": 4.6950363, "lon": 43.2318806}, {"type": "node", "id": 348404670, "lat": 4.6523901, "lon": 43.1570129}, {"type": "node", "id": 348404675, "lat": 4.6263286, "lon": 43.1153144}, {"type": "node", "id": 348404678, "lat": 4.6021624, "lon": 43.0793021}, {"type": "node", "id": 348404681, "lat": 4.572784, "lon": 43.0451852}, {"type": "node", "id": 348404683, "lat": 4.5590424, "lon": 43.0347606}, {"type": "node", "id": 348404685, "lat": 4.5415101, "lon": 43.0257575}, {"type": "node", "id": 348404687, "lat": 4.5206609, "lon": 43.0200713}, {"type": "node", "id": 348404690, "lat": 4.4832271, "lon": 43.0124898}, {"type": "node", "id": 348404692, "lat": 4.4681208, "lon": 43.007467}, {"type": "node", "id": 348404694, "lat": 4.4496219, "lon": 42.9965496}, {"type": "node", "id": 348404696, "lat": 4.4359751, "lon": 42.9895746}, {"type": "node", "id": 348404697, "lat": 4.4220251, "lon": 42.9804767}, {"type": "node", "id": 348404698, "lat": 4.4029196, "lon": 42.9692561}, {"type": "node", "id": 348404699, "lat": 4.3804783, "lon": 42.9519702}, {"type": "node", "id": 348404702, "lat": 4.347726, "lon": 42.9249799}, {"type": "node", "id": 348404703, "lat": 4.3180064, "lon": 42.8973831}, {"type": "node", "id": 348404704, "lat": 4.3058759, "lon": 42.8828265}, {"type": "node", "id": 348404705, "lat": 4.2876802, "lon": 42.8600819}, {"type": "node", "id": 348404706, "lat": 4.2797954, "lon": 42.848558}, {"type": "node", "id": 348404707, "lat": 4.2710008, "lon": 42.8324851}, {"type": "node", "id": 348404709, "lat": 4.2667552, "lon": 42.8249036}, {"type": "node", "id": 348404711, "lat": 4.2652389, "lon": 42.8155025}, {"type": "node", "id": 348404713, "lat": 4.2646324, "lon": 42.7606121}, {"type": "node", "id": 348404715, "lat": 4.2643291, "lon": 42.7357447}, {"type": "node", "id": 348404717, "lat": 4.2628128, "lon": 42.7184588}, {"type": "node", "id": 348404720, "lat": 4.2603867, "lon": 42.7029924}, {"type": "node", "id": 348404722, "lat": 4.2543215, "lon": 42.6829772}, {"type": "node", "id": 348404724, "lat": 4.2494693, "lon": 42.6690272}, {"type": "node", "id": 348404727, "lat": 4.2349127, "lon": 42.637488}, {"type": "node", "id": 348404729, "lat": 4.2158072, "lon": 42.5868433}, {"type": "node", "id": 348404731, "lat": 4.2121681, "lon": 42.5719835}, {"type": "node", "id": 348404733, "lat": 4.2067094, "lon": 42.554091}, {"type": "node", "id": 348404735, "lat": 4.2024637, "lon": 42.5255844}, {"type": "node", "id": 348404737, "lat": 4.2030703, "lon": 42.494955}, {"type": "node", "id": 348404739, "lat": 4.202767, "lon": 42.4746365}, {"type": "node", "id": 348404741, "lat": 4.1930626, "lon": 42.4042798}, {"type": "node", "id": 348404743, "lat": 4.1894235, "lon": 42.3700113}, {"type": "node", "id": 348404746, "lat": 4.1821452, "lon": 42.2517393}, {"type": "node", "id": 348404748, "lat": 4.1791126, "lon": 42.1941196}, {"type": "node", "id": 348404750, "lat": 4.1791126, "lon": 42.0873715}, {"type": "node", "id": 348404753, "lat": 4.1750392, "lon": 42.0796541}, {"type": "node", "id": 348404755, "lat": 4.1677415, "lon": 42.0689405}, {"type": "node", "id": 348404757, "lat": 4.1612202, "lon": 42.0607112}, {"type": "node", "id": 348404759, "lat": 4.1506618, "lon": 42.0504634}, {"type": "node", "id": 348404762, "lat": 4.1310978, "lon": 42.0343153}, {"type": "node", "id": 348404764, "lat": 4.101286, "lon": 42.008851}, {"type": "node", "id": 348404765, "lat": 4.0935225, "lon": 42.0003112}, {"type": "node", "id": 348404766, "lat": 4.0953857, "lon": 41.978884}, {"type": "node", "id": 348404767, "lat": 4.0812562, "lon": 41.9743811}, {"type": "node", "id": 348404768, "lat": 4.0795482, "lon": 41.9717415}, {"type": "node", "id": 348404769, "lat": 4.0798945, "lon": 41.9668584}, {"type": "node", "id": 348404770, "lat": 4.0554814, "lon": 41.9462773}, {"type": "node", "id": 348404774, "lat": 4.0444572, "lon": 41.9459667}, {"type": "node", "id": 348404776, "lat": 4.0281539, "lon": 41.9487616}, {"type": "node", "id": 348404777, "lat": 4.0166639, "lon": 41.9430166}, {"type": "node", "id": 348404779, "lat": 4.0022238, "lon": 41.9262475}, {"type": "node", "id": 348404781, "lat": 3.9952522, "lon": 41.9219223}, {"type": "node", "id": 348404783, "lat": 3.9914027, "lon": 41.912052}, {"type": "node", "id": 348404785, "lat": 3.9826897, "lon": 41.9073271}, {"type": "node", "id": 348404788, "lat": 3.9826836, "lon": 41.9067502}, {"type": "node", "id": 348404793, "lat": 3.9362341, "lon": 41.8725241}, {"type": "node", "id": 348404795, "lat": 3.918873, "lon": 41.8574597}, {"type": "node", "id": 348404799, "lat": 3.8735044, "lon": 41.829641}, {"type": "node", "id": 348520903, "lat": 3.5245883, "lon": 41.5749254}, {"type": "node", "id": 348520916, "lat": 3.355146, "lon": 41.4578561}, {"type": "node", "id": 348520932, "lat": 3.715596, "lon": 41.7166407}, {"type": "node", "id": 348520945, "lat": 2.9854537, "lon": 41.1466985}, {"type": "node", "id": 348521017, "lat": 0.9305275, "lon": 40.9946012}, {"type": "node", "id": 348521030, "lat": 0.1819857, "lon": 40.994148}, {"type": "node", "id": 348521059, "lat": -0.9948997, "lon": 41.11281}, {"type": "node", "id": 348521068, "lat": -1.2165809, "lon": 41.2767301}, {"type": "node", "id": 348521080, "lat": -1.4168646, "lon": 41.4250699}, {"type": "node", "id": 348994623, "lat": 3.9514525, "lon": 41.8249184}, {"type": "node", "id": 348994624, "lat": 3.9481987, "lon": 41.8238885}, {"type": "node", "id": 348994625, "lat": 3.9475137, "lon": 41.8228585}, {"type": "node", "id": 348994626, "lat": 3.9492262, "lon": 41.8204552}, {"type": "node", "id": 348994627, "lat": 3.9529938, "lon": 41.8178803}, {"type": "node", "id": 348994628, "lat": 3.9553913, "lon": 41.8178803}, {"type": "node", "id": 348994629, "lat": 3.9574463, "lon": 41.8194253}, {"type": "node", "id": 348994630, "lat": 3.9589876, "lon": 41.8201119}, {"type": "node", "id": 348994631, "lat": 3.9586451, "lon": 41.8192536}, {"type": "node", "id": 348994632, "lat": 3.9581314, "lon": 41.8147904}, {"type": "node", "id": 348994633, "lat": 3.9593301, "lon": 41.8132455}, {"type": "node", "id": 348994634, "lat": 3.9584739, "lon": 41.8108422}, {"type": "node", "id": 348994635, "lat": 3.9583026, "lon": 41.8084389}, {"type": "node", "id": 348994636, "lat": 3.9595014, "lon": 41.8065507}, {"type": "node", "id": 348994637, "lat": 3.9584739, "lon": 41.8043191}, {"type": "node", "id": 348994638, "lat": 3.9567613, "lon": 41.8017441}, {"type": "node", "id": 348994639, "lat": 3.9586451, "lon": 41.796766}, {"type": "node", "id": 348994640, "lat": 3.9569326, "lon": 41.7991692}, {"type": "node", "id": 348994641, "lat": 3.9661801, "lon": 41.796251}, {"type": "node", "id": 348994642, "lat": 3.9632689, "lon": 41.7964226}, {"type": "node", "id": 348994643, "lat": 3.9685776, "lon": 41.7950494}, {"type": "node", "id": 348994644, "lat": 3.9685776, "lon": 41.7940194}, {"type": "node", "id": 348994645, "lat": 3.9702901, "lon": 41.7979676}, {"type": "node", "id": 348994646, "lat": 3.9689201, "lon": 41.7974526}, {"type": "node", "id": 348994647, "lat": 3.9706326, "lon": 41.7953927}, {"type": "node", "id": 348994648, "lat": 3.9720026, "lon": 41.797281}, {"type": "node", "id": 348994649, "lat": 3.9735439, "lon": 41.7929894}, {"type": "node", "id": 348994650, "lat": 3.9711464, "lon": 41.794191}, {"type": "node", "id": 348994651, "lat": 3.9790238, "lon": 41.7916161}, {"type": "node", "id": 348994652, "lat": 3.9762838, "lon": 41.7919595}, {"type": "node", "id": 348994653, "lat": 3.9821063, "lon": 41.7917878}, {"type": "node", "id": 348994654, "lat": 3.9809075, "lon": 41.7924744}, {"type": "node", "id": 348994655, "lat": 3.9632689, "lon": 41.8633706}, {"type": "node", "id": 348994656, "lat": 3.9603576, "lon": 41.8631989}, {"type": "node", "id": 348994657, "lat": 3.9666939, "lon": 41.8638856}, {"type": "node", "id": 348994658, "lat": 3.9646389, "lon": 41.8633706}, {"type": "node", "id": 348994659, "lat": 3.9620701, "lon": 41.8589074}, {"type": "node", "id": 348994660, "lat": 3.9618989, "lon": 41.8571908}, {"type": "node", "id": 348994661, "lat": 3.9603576, "lon": 41.8618256}, {"type": "node", "id": 348994662, "lat": 3.9613851, "lon": 41.8602807}, {"type": "node", "id": 348994663, "lat": 3.9607001, "lon": 41.8513543}, {"type": "node", "id": 348994664, "lat": 3.9572751, "lon": 41.851011}, {"type": "node", "id": 348994665, "lat": 3.9617276, "lon": 41.8554742}, {"type": "node", "id": 348994666, "lat": 3.9620701, "lon": 41.8532426}, {"type": "node", "id": 348994667, "lat": 3.9500825, "lon": 41.850496}, {"type": "node", "id": 348994668, "lat": 3.949055, "lon": 41.8479211}, {"type": "node", "id": 348994669, "lat": 3.9547063, "lon": 41.8516976}, {"type": "node", "id": 348994670, "lat": 3.9514525, "lon": 41.8516976}, {"type": "node", "id": 348994671, "lat": 3.9543638, "lon": 41.8413979}, {"type": "node", "id": 348994672, "lat": 3.9512812, "lon": 41.8419129}, {"type": "node", "id": 348994673, "lat": 3.9502537, "lon": 41.8434579}, {"type": "node", "id": 348994674, "lat": 3.9488837, "lon": 41.8444878}, {"type": "node", "id": 348994675, "lat": 3.9548776, "lon": 41.8328149}, {"type": "node", "id": 348994676, "lat": 3.9548776, "lon": 41.8353898}, {"type": "node", "id": 348994677, "lat": 3.9540213, "lon": 41.8367631}, {"type": "node", "id": 348994680, "lat": 3.953165, "lon": 41.838823}, {"type": "node", "id": 348994681, "lat": 3.9464861, "lon": 41.8331582}, {"type": "node", "id": 348994682, "lat": 3.9483699, "lon": 41.8343598}, {"type": "node", "id": 348994683, "lat": 3.95111, "lon": 41.8343598}, {"type": "node", "id": 348994684, "lat": 3.953165, "lon": 41.8321282}, {"type": "node", "id": 348994689, "lat": 3.9523088, "lon": 41.8269784}, {"type": "node", "id": 348994690, "lat": 3.9514525, "lon": 41.8295533}, {"type": "node", "id": 348994691, "lat": 3.9502537, "lon": 41.8312699}, {"type": "node", "id": 348994692, "lat": 3.9476849, "lon": 41.8319566}, {"type": "node", "id": 348994693, "lat": 3.9800513, "lon": 41.892038}, {"type": "node", "id": 348994694, "lat": 3.9788526, "lon": 41.8901498}, {"type": "node", "id": 348994695, "lat": 3.9773113, "lon": 41.8882615}, {"type": "node", "id": 348994696, "lat": 3.9793663, "lon": 41.8982178}, {"type": "node", "id": 348994697, "lat": 3.9814213, "lon": 41.8971879}, {"type": "node", "id": 348994698, "lat": 3.9817638, "lon": 41.8949563}, {"type": "node", "id": 348994699, "lat": 3.9673789, "lon": 41.8784768}, {"type": "node", "id": 348994700, "lat": 3.9690914, "lon": 41.8788201}, {"type": "node", "id": 348994701, "lat": 3.9665226, "lon": 41.8750436}, {"type": "node", "id": 348994702, "lat": 3.9665226, "lon": 41.8774468}, {"type": "node", "id": 348994703, "lat": 3.9761126, "lon": 41.883455}, {"type": "node", "id": 348994704, "lat": 3.9773113, "lon": 41.8855149}, {"type": "node", "id": 348994705, "lat": 3.9713176, "lon": 41.8791634}, {"type": "node", "id": 348994706, "lat": 3.9732014, "lon": 41.8810517}, {"type": "node", "id": 348994707, "lat": 3.9634401, "lon": 41.8664605}, {"type": "node", "id": 348994708, "lat": 3.9776538, "lon": 41.7897279}, {"type": "node", "id": 348994709, "lat": 3.9624126, "lon": 41.8680054}, {"type": "node", "id": 348994710, "lat": 3.9795376, "lon": 41.7904145}, {"type": "node", "id": 348994711, "lat": 3.9668651, "lon": 41.8656022}, {"type": "node", "id": 348994712, "lat": 3.9762838, "lon": 41.7857796}, {"type": "node", "id": 348994713, "lat": 3.9660089, "lon": 41.8661172}, {"type": "node", "id": 348994714, "lat": 3.9764551, "lon": 41.7874963}, {"type": "node", "id": 348994715, "lat": 3.9639539, "lon": 41.8719537}, {"type": "node", "id": 348994716, "lat": 3.9665226, "lon": 41.8726403}, {"type": "node", "id": 348994717, "lat": 3.9627551, "lon": 41.8697221}, {"type": "node", "id": 348994718, "lat": 3.9627551, "lon": 41.871267}, {"type": "node", "id": 348994938, "lat": 4.5346069, "lon": 35.9559784}, {"type": "node", "id": 348994939, "lat": 4.5313168, "lon": 35.9580193}, {"type": "node", "id": 348994940, "lat": 4.5272512, "lon": 35.9645919}, {"type": "node", "id": 348994941, "lat": 4.5201435, "lon": 35.9713211}, {"type": "node", "id": 348994942, "lat": 4.4752655, "lon": 36.0137863}, {"type": "node", "id": 348994943, "lat": 4.4613323, "lon": 36.02882}, {"type": "node", "id": 348994944, "lat": 4.4497399, "lon": 36.0372848}, {"type": "node", "id": 348994946, "lat": 4.4475512, "lon": 36.0413552}, {"type": "node", "id": 348994947, "lat": 4.4466209, "lon": 36.0476113}, {"type": "node", "id": 348994951, "lat": 4.6191361, "lon": 35.944231}, {"type": "node", "id": 348994952, "lat": 4.5745244, "lon": 35.9450455}, {"type": "node", "id": 348994953, "lat": 4.5697761, "lon": 35.9538231}, {"type": "node", "id": 348994954, "lat": 4.5628238, "lon": 35.9607811}, {"type": "node", "id": 348994955, "lat": 4.5430732, "lon": 35.9537773}, {"type": "node", "id": 348994956, "lat": 4.5408902, "lon": 35.9543457}, {"type": "node", "id": 348994996, "lat": 3.536425, "lon": 39.0897269}, {"type": "node", "id": 348995208, "lat": 3.9600916, "lon": 40.038414}, {"type": "node", "id": 348995210, "lat": 3.9942996, "lon": 40.1061058}, {"type": "node", "id": 348995211, "lat": 4.0001731, "lon": 40.1222305}, {"type": "node", "id": 348995212, "lat": 4.0062538, "lon": 40.1295853}, {"type": "node", "id": 348995213, "lat": 4.0167651, "lon": 40.1507073}, {"type": "node", "id": 348995214, "lat": 4.0274811, "lon": 40.1722412}, {"type": "node", "id": 348995215, "lat": 4.0439338, "lon": 40.1919823}, {"type": "node", "id": 348995216, "lat": 4.0435075, "lon": 40.2121964}, {"type": "node", "id": 348995217, "lat": 4.0500784, "lon": 40.2340508}, {"type": "node", "id": 348995218, "lat": 4.0847821, "lon": 40.3241768}, {"type": "node", "id": 348995219, "lat": 4.0873689, "lon": 40.3303718}, {"type": "node", "id": 348995220, "lat": 4.1063266, "lon": 40.3757897}, {"type": "node", "id": 348995221, "lat": 4.1048484, "lon": 40.3877716}, {"type": "node", "id": 348995222, "lat": 4.1197338, "lon": 40.403019}, {"type": "node", "id": 348995223, "lat": 4.1274681, "lon": 40.4176673}, {"type": "node", "id": 348995224, "lat": 4.13791, "lon": 40.44279}, {"type": "node", "id": 348995225, "lat": 4.18626, "lon": 40.55906}, {"type": "node", "id": 348995226, "lat": 4.22495, "lon": 40.65216}, {"type": "node", "id": 348995227, "lat": 4.2372486, "lon": 40.6754601}, {"type": "node", "id": 348995228, "lat": 4.2394542, "lon": 40.6810704}, {"type": "node", "id": 348995229, "lat": 4.242876, "lon": 40.6897543}, {"type": "node", "id": 348995230, "lat": 4.2468, "lon": 40.70921}, {"type": "node", "id": 348995231, "lat": 4.24916, "lon": 40.7243}, {"type": "node", "id": 348995232, "lat": 4.2612987, "lon": 40.7476791}, {"type": "node", "id": 348995233, "lat": 4.2788941, "lon": 40.7591485}, {"type": "node", "id": 348995234, "lat": 4.2837569, "lon": 40.7807315}, {"type": "node", "id": 348995235, "lat": 4.281098, "lon": 40.7819464}, {"type": "node", "id": 348995236, "lat": 4.27301, "lon": 40.78464}, {"type": "node", "id": 348995237, "lat": 4.25515, "lon": 40.81384}, {"type": "node", "id": 348995238, "lat": 4.24843, "lon": 40.83069}, {"type": "node", "id": 348995239, "lat": 4.24626, "lon": 40.8441}, {"type": "node", "id": 348995240, "lat": 4.22671, "lon": 40.85577}, {"type": "node", "id": 348995241, "lat": 4.22089, "lon": 40.87322}, {"type": "node", "id": 348995242, "lat": 4.21284, "lon": 40.88238}, {"type": "node", "id": 348995243, "lat": 4.20693, "lon": 40.88401}, {"type": "node", "id": 348995244, "lat": 4.20621, "lon": 40.88378}, {"type": "node", "id": 348995245, "lat": 4.19886, "lon": 40.8814}, {"type": "node", "id": 348995246, "lat": 4.19266, "lon": 40.88321}, {"type": "node", "id": 348995247, "lat": 4.17074, "lon": 40.89849}, {"type": "node", "id": 348995248, "lat": 4.15462, "lon": 40.90416}, {"type": "node", "id": 348995249, "lat": 4.15254, "lon": 40.90645}, {"type": "node", "id": 348995250, "lat": 4.15113, "lon": 40.91378}, {"type": "node", "id": 348995251, "lat": 4.14417, "lon": 40.92981}, {"type": "node", "id": 348995252, "lat": 4.14088, "lon": 40.94791}, {"type": "node", "id": 348995253, "lat": 4.13207, "lon": 40.96508}, {"type": "node", "id": 348995254, "lat": 4.12537, "lon": 40.97216}, {"type": "node", "id": 348995255, "lat": 4.11638, "lon": 40.97717}, {"type": "node", "id": 348995260, "lat": 4.11061, "lon": 40.98219}, {"type": "node", "id": 348995261, "lat": 4.1078, "lon": 40.99342}, {"type": "node", "id": 348995263, "lat": 4.10271, "lon": 41.00142}, {"type": "node", "id": 348995265, "lat": 4.08933, "lon": 41.00986}, {"type": "node", "id": 348995266, "lat": 4.07663, "lon": 41.02311}, {"type": "node", "id": 348995267, "lat": 4.07086, "lon": 41.02607}, {"type": "node", "id": 348995268, "lat": 4.07153, "lon": 41.0318}, {"type": "node", "id": 348995269, "lat": 4.07037, "lon": 41.03523}, {"type": "node", "id": 348995270, "lat": 4.06482, "lon": 41.04071}, {"type": "node", "id": 348995271, "lat": 4.05883, "lon": 41.04436}, {"type": "node", "id": 348995272, "lat": 4.04773, "lon": 41.05739}, {"type": "node", "id": 348995273, "lat": 4.04304, "lon": 41.0607}, {"type": "node", "id": 348995274, "lat": 4.03643, "lon": 41.06537}, {"type": "node", "id": 348995275, "lat": 4.0226, "lon": 41.07265}, {"type": "node", "id": 348995276, "lat": 4.01332, "lon": 41.09187}, {"type": "node", "id": 348995277, "lat": 3.99519, "lon": 41.09853}, {"type": "node", "id": 348995278, "lat": 3.9892, "lon": 41.10402}, {"type": "node", "id": 348995279, "lat": 3.98712, "lon": 41.10475}, {"type": "node", "id": 348995280, "lat": 3.9782532, "lon": 41.5544472}, {"type": "node", "id": 348995281, "lat": 3.9758966, "lon": 41.557064}, {"type": "node", "id": 348995282, "lat": 3.9708266, "lon": 41.5602608}, {"type": "node", "id": 348995283, "lat": 3.9666674, "lon": 41.5668984}, {"type": "node", "id": 348995284, "lat": 3.9707828, "lon": 41.5763092}, {"type": "node", "id": 348995285, "lat": 3.971227, "lon": 41.5820427}, {"type": "node", "id": 348995286, "lat": 3.9693704, "lon": 41.5879975}, {"type": "node", "id": 348995287, "lat": 3.970046, "lon": 41.5932732}, {"type": "node", "id": 348995288, "lat": 3.9748523, "lon": 41.6022301}, {"type": "node", "id": 348995289, "lat": 3.9729955, "lon": 41.6081848}, {"type": "node", "id": 348995290, "lat": 3.9738889, "lon": 41.6178169}, {"type": "node", "id": 348995291, "lat": 3.9832935, "lon": 41.6277046}, {"type": "node", "id": 348995292, "lat": 3.9823623, "lon": 41.6315994}, {"type": "node", "id": 348995293, "lat": 3.9655015, "lon": 41.6551666}, {"type": "node", "id": 348995294, "lat": 3.9657068, "lon": 41.6638832}, {"type": "node", "id": 348995295, "lat": 3.9599254, "lon": 41.6744118}, {"type": "node", "id": 348995296, "lat": 3.9693398, "lon": 41.6806297}, {"type": "node", "id": 348995297, "lat": 3.97071, "lon": 41.6840744}, {"type": "node", "id": 348995298, "lat": 3.9697802, "lon": 41.6875114}, {"type": "node", "id": 348995299, "lat": 3.9780478, "lon": 41.6925774}, {"type": "node", "id": 348995300, "lat": 3.9832775, "lon": 41.7136879}, {"type": "node", "id": 348995301, "lat": 3.9924597, "lon": 41.7205925}, {"type": "node", "id": 348995302, "lat": 3.9871599, "lon": 41.7235565}, {"type": "node", "id": 348995303, "lat": 3.9866802, "lon": 41.7302056}, {"type": "node", "id": 348995304, "lat": 3.9850017, "lon": 41.7339673}, {"type": "node", "id": 348995305, "lat": 3.9868944, "lon": 41.7357101}, {"type": "node", "id": 348995306, "lat": 3.9845788, "lon": 41.7407493}, {"type": "node", "id": 348995307, "lat": 3.984807, "lon": 41.7428951}, {"type": "node", "id": 348995308, "lat": 3.9834104, "lon": 41.746933}, {"type": "node", "id": 348995309, "lat": 3.9832659, "lon": 41.7501479}, {"type": "node", "id": 348995310, "lat": 3.9825034, "lon": 41.752636}, {"type": "node", "id": 348995311, "lat": 3.9797101, "lon": 41.7535744}, {"type": "node", "id": 348995312, "lat": 3.9784014, "lon": 41.7537689}, {"type": "node", "id": 348995313, "lat": 3.9767177, "lon": 41.7540245}, {"type": "node", "id": 348995314, "lat": 3.97506, "lon": 41.76097}, {"type": "node", "id": 348995315, "lat": 3.97229, "lon": 41.77258}, {"type": "node", "id": 348995316, "lat": 3.9738855, "lon": 41.7780876}, {"type": "node", "id": 348995317, "lat": 3.9793944, "lon": 41.7822342}, {"type": "node", "id": 348995318, "lat": 3.9773178, "lon": 41.7842903}, {"type": "node", "id": 348995319, "lat": 3.94787, "lon": 41.30983}, {"type": "node", "id": 348995320, "lat": 3.94428, "lon": 41.31493}, {"type": "node", "id": 348995321, "lat": 3.94384, "lon": 41.32013}, {"type": "node", "id": 348995322, "lat": 3.94061, "lon": 41.32265}, {"type": "node", "id": 348995323, "lat": 3.93876, "lon": 41.32631}, {"type": "node", "id": 348995324, "lat": 3.9392736, "lon": 41.3297262}, {"type": "node", "id": 348995325, "lat": 3.94655, "lon": 41.33894}, {"type": "node", "id": 348995326, "lat": 3.9509, "lon": 41.34835}, {"type": "node", "id": 348995327, "lat": 3.95976, "lon": 41.35419}, {"type": "node", "id": 348995328, "lat": 3.96032, "lon": 41.35456}, {"type": "node", "id": 348995329, "lat": 3.96099, "lon": 41.35938}, {"type": "node", "id": 348995330, "lat": 3.95893, "lon": 41.3596}, {"type": "node", "id": 348995331, "lat": 3.9542898, "lon": 41.3653421}, {"type": "node", "id": 348995332, "lat": 3.95153, "lon": 41.37357}, {"type": "node", "id": 348995333, "lat": 3.95175, "lon": 41.37862}, {"type": "node", "id": 348995334, "lat": 3.96276, "lon": 41.39125}, {"type": "node", "id": 348995335, "lat": 3.96229, "lon": 41.3947}, {"type": "node", "id": 348995336, "lat": 3.95329, "lon": 41.40545}, {"type": "node", "id": 348995337, "lat": 3.9489, "lon": 41.41369}, {"type": "node", "id": 348995338, "lat": 3.94796, "lon": 41.41919}, {"type": "node", "id": 348995339, "lat": 3.94934, "lon": 41.42172}, {"type": "node", "id": 348995340, "lat": 3.94541, "lon": 41.42675}, {"type": "node", "id": 348995341, "lat": 3.94494, "lon": 41.43019}, {"type": "node", "id": 348995342, "lat": 3.94746, "lon": 41.43547}, {"type": "node", "id": 348995343, "lat": 3.95482, "lon": 41.43709}, {"type": "node", "id": 348995344, "lat": 3.95365, "lon": 41.44534}, {"type": "node", "id": 348995345, "lat": 3.95634, "lon": 41.45896}, {"type": "node", "id": 348995346, "lat": 3.9566, "lon": 41.46025}, {"type": "node", "id": 348995347, "lat": 3.95313, "lon": 41.46827}, {"type": "node", "id": 348995348, "lat": 3.95519, "lon": 41.47285}, {"type": "node", "id": 348995349, "lat": 3.95265, "lon": 41.47629}, {"type": "node", "id": 348995350, "lat": 3.95218, "lon": 41.47973}, {"type": "node", "id": 348995351, "lat": 3.95746, "lon": 41.48204}, {"type": "node", "id": 348995352, "lat": 3.95861, "lon": 41.48433}, {"type": "node", "id": 348995353, "lat": 3.9579, "lon": 41.48938}, {"type": "node", "id": 348995354, "lat": 3.96363, "lon": 41.49971}, {"type": "node", "id": 348995355, "lat": 3.96476, "lon": 41.50568}, {"type": "node", "id": 348995356, "lat": 3.962, "lon": 41.50681}, {"type": "node", "id": 348995358, "lat": 3.95487, "lon": 41.50518}, {"type": "node", "id": 348995359, "lat": 3.95463, "lon": 41.50977}, {"type": "node", "id": 348995360, "lat": 3.95967, "lon": 41.51827}, {"type": "node", "id": 348995361, "lat": 3.97115, "lon": 41.52403}, {"type": "node", "id": 348995362, "lat": 3.98214, "lon": 41.54516}, {"type": "node", "id": 348995363, "lat": 3.98167, "lon": 41.55066}, {"type": "node", "id": 348995364, "lat": 3.97995, "lon": 41.55256}, {"type": "node", "id": 348995365, "lat": 3.9852817, "lon": 41.1053887}, {"type": "node", "id": 348995366, "lat": 3.9875684, "lon": 41.1118164}, {"type": "node", "id": 348995367, "lat": 3.9870949, "lon": 41.1180039}, {"type": "node", "id": 348995368, "lat": 3.9824834, "lon": 41.1225815}, {"type": "node", "id": 348995369, "lat": 3.9748611, "lon": 41.1254724}, {"type": "node", "id": 348995370, "lat": 3.9741781, "lon": 41.133339}, {"type": "node", "id": 348995371, "lat": 3.9714119, "lon": 41.135624}, {"type": "node", "id": 348995372, "lat": 3.9665876, "lon": 41.1326332}, {"type": "node", "id": 348995373, "lat": 3.964742, "lon": 41.1358833}, {"type": "node", "id": 348995374, "lat": 3.957349, "lon": 41.1488914}, {"type": "node", "id": 348995375, "lat": 3.9513364, "lon": 41.1628647}, {"type": "node", "id": 348995376, "lat": 3.94695, "lon": 41.16607}, {"type": "node", "id": 348995377, "lat": 3.94258, "lon": 41.1692657}, {"type": "node", "id": 348995378, "lat": 3.9395182, "lon": 41.181572}, {"type": "node", "id": 348995379, "lat": 3.9414141, "lon": 41.185875}, {"type": "node", "id": 348995380, "lat": 3.9381059, "lon": 41.2009812}, {"type": "node", "id": 348995381, "lat": 3.9389188, "lon": 41.202755}, {"type": "node", "id": 348995382, "lat": 3.9479477, "lon": 41.2032089}, {"type": "node", "id": 348995383, "lat": 3.9534635, "lon": 41.2145394}, {"type": "node", "id": 348995384, "lat": 3.9498913, "lon": 41.2270775}, {"type": "node", "id": 348995385, "lat": 3.9560352, "lon": 41.2301064}, {"type": "node", "id": 348995386, "lat": 3.9588847, "lon": 41.235302}, {"type": "node", "id": 348995387, "lat": 3.9547021, "lon": 41.2521858}, {"type": "node", "id": 348995388, "lat": 3.9577632, "lon": 41.2708816}, {"type": "node", "id": 348995389, "lat": 3.9554146, "lon": 41.2757759}, {"type": "node", "id": 348995390, "lat": 3.9497941, "lon": 41.2780685}, {"type": "node", "id": 348995391, "lat": 3.9485452, "lon": 41.2817421}, {"type": "node", "id": 348995392, "lat": 3.9484291, "lon": 41.2865524}, {"type": "node", "id": 348995393, "lat": 3.94808, "lon": 41.30093}, {"type": "node", "id": 348995398, "lat": 3.7018686, "lon": 39.787229}, {"type": "node", "id": 348995401, "lat": 3.8509514, "lon": 39.8568462}, {"type": "node", "id": 348995402, "lat": 3.8679171, "lon": 39.8650741}, {"type": "node", "id": 348995403, "lat": 3.8747265, "lon": 39.8695679}, {"type": "node", "id": 348995404, "lat": 3.9031873, "lon": 39.9258499}, {"type": "node", "id": 348995405, "lat": 3.9406721, "lon": 40.0}, {"type": "node", "id": 348995406, "lat": 3.9501562, "lon": 40.0187607}, {"type": "node", "id": 348997031, "lat": 4.6183288, "lon": 35.698264}, {"type": "node", "id": 348997032, "lat": 4.6171274, "lon": 35.5085829}, {"type": "node", "id": 352709371, "lat": 4.1791564, "lon": 34.0473751}, {"type": "node", "id": 352709372, "lat": 4.1440089, "lon": 34.065686}, {"type": "node", "id": 352709374, "lat": 4.1211187, "lon": 34.0495316}, {"type": "node", "id": 352709376, "lat": 4.0941999, "lon": 34.0631391}, {"type": "node", "id": 352709378, "lat": 4.0871985, "lon": 34.0768963}, {"type": "node", "id": 352709381, "lat": 4.085458, "lon": 34.0797466}, {"type": "node", "id": 352709389, "lat": 4.0612821, "lon": 34.0916202}, {"type": "node", "id": 352709392, "lat": 4.0490804, "lon": 34.0913561}, {"type": "node", "id": 352709394, "lat": 4.0366302, "lon": 34.0876189}, {"type": "node", "id": 352709397, "lat": 4.030138, "lon": 34.065454}, {"type": "node", "id": 352709399, "lat": 4.0276953, "lon": 34.0588355}, {"type": "node", "id": 352709403, "lat": 4.0095127, "lon": 34.0600522}, {"type": "node", "id": 352709405, "lat": 4.0022656, "lon": 34.0821168}, {"type": "node", "id": 352709408, "lat": 3.9766452, "lon": 34.1056948}, {"type": "node", "id": 352709411, "lat": 3.9613466, "lon": 34.1346408}, {"type": "node", "id": 352709413, "lat": 3.958046, "lon": 34.1340176}, {"type": "node", "id": 352709416, "lat": 3.955767, "lon": 34.1337584}, {"type": "node", "id": 352709419, "lat": 3.9553866, "lon": 34.1341508}, {"type": "node", "id": 352709434, "lat": 3.925024, "lon": 34.1260989}, {"type": "node", "id": 352709437, "lat": 3.9008365, "lon": 34.119928}, {"type": "node", "id": 352709440, "lat": 3.8974494, "lon": 34.1163179}, {"type": "node", "id": 352709443, "lat": 3.8852439, "lon": 34.0914395}, {"type": "node", "id": 352709446, "lat": 3.8740656, "lon": 34.0901266}, {"type": "node", "id": 352709448, "lat": 3.8683317, "lon": 34.0895244}, {"type": "node", "id": 352709452, "lat": 3.8643526, "lon": 34.0889187}, {"type": "node", "id": 352709454, "lat": 3.8629236, "lon": 34.0887419}, {"type": "node", "id": 352709457, "lat": 3.8612687, "lon": 34.0884347}, {"type": "node", "id": 352709462, "lat": 3.8598884, "lon": 34.0926638}, {"type": "node", "id": 352709469, "lat": 3.8627215, "lon": 34.0981951}, {"type": "node", "id": 352709472, "lat": 3.8645265, "lon": 34.1012857}, {"type": "node", "id": 352709474, "lat": 3.8684234, "lon": 34.1094204}, {"type": "node", "id": 352709476, "lat": 3.8702917, "lon": 34.1193361}, {"type": "node", "id": 352709479, "lat": 3.8706883, "lon": 34.1204162}, {"type": "node", "id": 352709482, "lat": 3.8721438, "lon": 34.1278088}, {"type": "node", "id": 352709484, "lat": 3.8687998, "lon": 34.1525927}, {"type": "node", "id": 352709488, "lat": 3.8691559, "lon": 34.1567446}, {"type": "node", "id": 352709490, "lat": 3.8693969, "lon": 34.1590925}, {"type": "node", "id": 352709494, "lat": 3.8698837, "lon": 34.1669149}, {"type": "node", "id": 352709497, "lat": 3.8765898, "lon": 34.1706962}, {"type": "node", "id": 352709500, "lat": 3.8796863, "lon": 34.1749949}, {"type": "node", "id": 352709502, "lat": 3.8821048, "lon": 34.204574}, {"type": "node", "id": 352709506, "lat": 3.8808589, "lon": 34.2155716}, {"type": "node", "id": 352709509, "lat": 3.8521187, "lon": 34.2250629}, {"type": "node", "id": 352709513, "lat": 3.8310067, "lon": 34.2260109}, {"type": "node", "id": 352709515, "lat": 3.8315599, "lon": 34.1800615}, {"type": "node", "id": 352709519, "lat": 3.8183156, "lon": 34.1685962}, {"type": "node", "id": 352709521, "lat": 3.8104709, "lon": 34.1639015}, {"type": "node", "id": 352709523, "lat": 3.8075298, "lon": 34.1582758}, {"type": "node", "id": 352709525, "lat": 3.8069669, "lon": 34.1531728}, {"type": "node", "id": 352709527, "lat": 3.8037736, "lon": 34.1534713}, {"type": "node", "id": 352709531, "lat": 3.799938, "lon": 34.1537651}, {"type": "node", "id": 352709533, "lat": 3.8001987, "lon": 34.1549799}, {"type": "node", "id": 352709536, "lat": 3.8014053, "lon": 34.1590679}, {"type": "node", "id": 352709540, "lat": 3.7996918, "lon": 34.1619943}, {"type": "node", "id": 352709543, "lat": 3.797727, "lon": 34.1634797}, {"type": "node", "id": 352709546, "lat": 3.7978264, "lon": 34.1635277}, {"type": "node", "id": 352709548, "lat": 3.80025, "lon": 34.1705686}, {"type": "node", "id": 352709551, "lat": 3.7989492, "lon": 34.1760151}, {"type": "node", "id": 352709554, "lat": 3.7951329, "lon": 34.1886466}, {"type": "node", "id": 352709556, "lat": 3.7935133, "lon": 34.1890259}, {"type": "node", "id": 352709560, "lat": 3.7902402, "lon": 34.1882307}, {"type": "node", "id": 352709562, "lat": 3.7828297, "lon": 34.1901453}, {"type": "node", "id": 352709565, "lat": 3.773519, "lon": 34.1660722}, {"type": "node", "id": 352709569, "lat": 3.7677056, "lon": 34.1708766}, {"type": "node", "id": 352709571, "lat": 3.7684402, "lon": 34.1761085}, {"type": "node", "id": 352709577, "lat": 3.7689895, "lon": 34.1779359}, {"type": "node", "id": 352709583, "lat": 3.7709053, "lon": 34.1857947}, {"type": "node", "id": 352709588, "lat": 3.7773307, "lon": 34.2029699}, {"type": "node", "id": 352709590, "lat": 3.7776932, "lon": 34.2024735}, {"type": "node", "id": 352709594, "lat": 3.7841895, "lon": 34.2203396}, {"type": "node", "id": 352709596, "lat": 3.7825534, "lon": 34.2260189}, {"type": "node", "id": 352709600, "lat": 3.7814579, "lon": 34.2268289}, {"type": "node", "id": 352709602, "lat": 3.7741225, "lon": 34.2268186}, {"type": "node", "id": 352709604, "lat": 3.7741194, "lon": 34.2289756}, {"type": "node", "id": 352709608, "lat": 3.7744087, "lon": 34.2291285}, {"type": "node", "id": 352709610, "lat": 3.7781859, "lon": 34.2316139}, {"type": "node", "id": 352709613, "lat": 3.7807705, "lon": 34.2331792}, {"type": "node", "id": 352709615, "lat": 3.7808578, "lon": 34.2353842}, {"type": "node", "id": 352709618, "lat": 3.7828871, "lon": 34.2394283}, {"type": "node", "id": 352709620, "lat": 3.7838912, "lon": 34.2455846}, {"type": "node", "id": 352709624, "lat": 3.7664264, "lon": 34.2576773}, {"type": "node", "id": 352709627, "lat": 3.7665255, "lon": 34.2579599}, {"type": "node", "id": 352709630, "lat": 3.7650052, "lon": 34.2584772}, {"type": "node", "id": 352709633, "lat": 3.760253, "lon": 34.2610263}, {"type": "node", "id": 352709636, "lat": 3.7482428, "lon": 34.2664468}, {"type": "node", "id": 352709640, "lat": 3.743805, "lon": 34.270514}, {"type": "node", "id": 352709645, "lat": 3.7439042, "lon": 34.2706953}, {"type": "node", "id": 352709648, "lat": 3.740625, "lon": 34.274117}, {"type": "node", "id": 352709653, "lat": 3.7368843, "lon": 34.2777727}, {"type": "node", "id": 352709657, "lat": 3.730762, "lon": 34.2832959}, {"type": "node", "id": 352709663, "lat": 3.7290934, "lon": 34.2862438}, {"type": "node", "id": 352709669, "lat": 3.7211086, "lon": 34.2974801}, {"type": "node", "id": 352709673, "lat": 3.7116505, "lon": 34.3079764}, {"type": "node", "id": 352709678, "lat": 3.7113883, "lon": 34.3079276}, {"type": "node", "id": 352709684, "lat": 3.7162334, "lon": 34.315866}, {"type": "node", "id": 352709689, "lat": 3.721656, "lon": 34.3185762}, {"type": "node", "id": 352709695, "lat": 3.7281698, "lon": 34.3234499}, {"type": "node", "id": 352709699, "lat": 3.7330424, "lon": 34.3310228}, {"type": "node", "id": 352709704, "lat": 3.7346489, "lon": 34.3450765}, {"type": "node", "id": 352709709, "lat": 3.7351766, "lon": 34.3548048}, {"type": "node", "id": 352709713, "lat": 3.7351606, "lon": 34.3650724}, {"type": "node", "id": 352709719, "lat": 3.731892, "lon": 34.3731735}, {"type": "node", "id": 352709724, "lat": 3.7275272, "lon": 34.3823538}, {"type": "node", "id": 352709731, "lat": 3.7177406, "lon": 34.3942275}, {"type": "node", "id": 352709735, "lat": 3.7112219, "lon": 34.3985403}, {"type": "node", "id": 352709741, "lat": 3.7052368, "lon": 34.4028539}, {"type": "node", "id": 352709746, "lat": 3.6927435, "lon": 34.4049071}, {"type": "node", "id": 352709751, "lat": 3.6885739, "lon": 34.4220392}, {"type": "node", "id": 352709755, "lat": 3.6763006, "lon": 34.4558031}, {"type": "node", "id": 352709771, "lat": 3.6197495, "lon": 34.4550567}, {"type": "node", "id": 352709775, "lat": 3.6194058, "lon": 34.4551017}, {"type": "node", "id": 352709778, "lat": 3.6111518, "lon": 34.4531161}, {"type": "node", "id": 352709781, "lat": 3.5754673, "lon": 34.4566759}, {"type": "node", "id": 352709786, "lat": 3.5381489, "lon": 34.4526704}, {"type": "node", "id": 352709788, "lat": 3.5171323, "lon": 34.4514969}, {"type": "node", "id": 352709794, "lat": 3.5042538, "lon": 34.4396553}, {"type": "node", "id": 352709800, "lat": 3.4917143, "lon": 34.4247746}, {"type": "node", "id": 352709807, "lat": 3.4880223, "lon": 34.3960588}, {"type": "node", "id": 352709809, "lat": 3.4927871, "lon": 34.390999}, {"type": "node", "id": 352709812, "lat": 3.4917681, "lon": 34.3889712}, {"type": "node", "id": 352709816, "lat": 3.4829379, "lon": 34.3909845}, {"type": "node", "id": 352709820, "lat": 3.4700216, "lon": 34.4038008}, {"type": "node", "id": 352709822, "lat": 3.4506569, "lon": 34.4166072}, {"type": "node", "id": 352709825, "lat": 3.4333423, "lon": 34.4192834}, {"type": "node", "id": 352709829, "lat": 3.4180896, "lon": 34.4098042}, {"type": "node", "id": 352709831, "lat": 3.4153117, "lon": 34.4045482}, {"type": "node", "id": 352709833, "lat": 3.4150446, "lon": 34.4016937}, {"type": "node", "id": 352709834, "lat": 3.3902653, "lon": 34.4003073}, {"type": "node", "id": 352709836, "lat": 3.3705844, "lon": 34.4006166}, {"type": "node", "id": 352709837, "lat": 3.3583451, "lon": 34.4147833}, {"type": "node", "id": 352709839, "lat": 3.3427126, "lon": 34.4299582}, {"type": "node", "id": 352709840, "lat": 3.3410128, "lon": 34.4296183}, {"type": "node", "id": 352709842, "lat": 3.332525, "lon": 34.4326449}, {"type": "node", "id": 352709843, "lat": 3.3074015, "lon": 34.4380119}, {"type": "node", "id": 352709845, "lat": 3.2829505, "lon": 34.4474326}, {"type": "node", "id": 352709846, "lat": 3.259866, "lon": 34.4501007}, {"type": "node", "id": 352709848, "lat": 3.2269426, "lon": 34.45208}, {"type": "node", "id": 352709850, "lat": 3.1821323, "lon": 34.4560686}, {"type": "node", "id": 352709854, "lat": 3.181988, "lon": 34.4558221}, {"type": "node", "id": 352709858, "lat": 3.174321, "lon": 34.4604473}, {"type": "node", "id": 352709860, "lat": 3.1726154, "lon": 34.4705744}, {"type": "node", "id": 352709864, "lat": 3.1691979, "lon": 34.4761216}, {"type": "node", "id": 352709866, "lat": 3.1651286, "lon": 34.482044}, {"type": "node", "id": 352709869, "lat": 3.155279, "lon": 34.4887824}, {"type": "node", "id": 352709870, "lat": 3.1413517, "lon": 34.4948402}, {"type": "node", "id": 352709872, "lat": 3.148797, "lon": 34.5120702}, {"type": "node", "id": 352709873, "lat": 3.1406124, "lon": 34.5367057}, {"type": "node", "id": 352709874, "lat": 3.1365292, "lon": 34.5458158}, {"type": "node", "id": 352709877, "lat": 3.1103733, "lon": 34.5589447}, {"type": "node", "id": 352709878, "lat": 3.107501, "lon": 34.5626133}, {"type": "node", "id": 352709888, "lat": 3.091398, "lon": 34.5723007}, {"type": "node", "id": 352709891, "lat": 3.0688846, "lon": 34.5748507}, {"type": "node", "id": 352709892, "lat": 3.0538928, "lon": 34.5731066}, {"type": "node", "id": 352709893, "lat": 3.0500678, "lon": 34.5727423}, {"type": "node", "id": 352709896, "lat": 3.0352048, "lon": 34.5757338}, {"type": "node", "id": 352709898, "lat": 3.0204895, "lon": 34.5765739}, {"type": "node", "id": 352709902, "lat": 3.0106025, "lon": 34.5843792}, {"type": "node", "id": 352709912, "lat": 3.0038154, "lon": 34.5873829}, {"type": "node", "id": 352709942, "lat": 2.9250022, "lon": 34.5988672}, {"type": "node", "id": 352709944, "lat": 2.9246764, "lon": 34.5990399}, {"type": "node", "id": 352709963, "lat": 2.9110282, "lon": 34.6314667}, {"type": "node", "id": 352709973, "lat": 2.9067303, "lon": 34.6392915}, {"type": "node", "id": 352709988, "lat": 2.8675618, "lon": 34.6528953}, {"type": "node", "id": 352710000, "lat": 2.863126, "lon": 34.668469}, {"type": "node", "id": 352710012, "lat": 2.8640422, "lon": 34.6849733}, {"type": "node", "id": 352710023, "lat": 2.8628737, "lon": 34.6923843}, {"type": "node", "id": 352710034, "lat": 2.8776814, "lon": 34.7017464}, {"type": "node", "id": 352710045, "lat": 2.8734393, "lon": 34.7083552}, {"type": "node", "id": 352710052, "lat": 2.8652594, "lon": 34.7117102}, {"type": "node", "id": 352710062, "lat": 2.861022, "lon": 34.7212109}, {"type": "node", "id": 352710067, "lat": 2.8587862, "lon": 34.728632}, {"type": "node", "id": 352710069, "lat": 2.8577324, "lon": 34.7318187}, {"type": "node", "id": 352710073, "lat": 2.8549855, "lon": 34.736348}, {"type": "node", "id": 352710091, "lat": 2.8261464, "lon": 34.7491183}, {"type": "node", "id": 352710095, "lat": 2.8257028, "lon": 34.7495066}, {"type": "node", "id": 352710098, "lat": 2.8254397, "lon": 34.7500295}, {"type": "node", "id": 352710100, "lat": 2.8258347, "lon": 34.7519423}, {"type": "node", "id": 352710105, "lat": 2.8283982, "lon": 34.7550107}, {"type": "node", "id": 352710115, "lat": 2.8209361, "lon": 34.7621503}, {"type": "node", "id": 352710124, "lat": 2.8111715, "lon": 34.7669874}, {"type": "node", "id": 352710127, "lat": 2.8024449, "lon": 34.7672295}, {"type": "node", "id": 352710132, "lat": 2.7877923, "lon": 34.7753794}, {"type": "node", "id": 352710136, "lat": 2.7703265, "lon": 34.7781619}, {"type": "node", "id": 352710138, "lat": 2.7657026, "lon": 34.7801981}, {"type": "node", "id": 352710142, "lat": 2.759026, "lon": 34.7822312}, {"type": "node", "id": 352710145, "lat": 2.7551719, "lon": 34.7835018}, {"type": "node", "id": 352710151, "lat": 2.7485246, "lon": 34.7841338}, {"type": "node", "id": 352710153, "lat": 2.7426926, "lon": 34.7837919}, {"type": "node", "id": 352710173, "lat": 2.6978801, "lon": 34.7754109}, {"type": "node", "id": 352710186, "lat": 2.6844581, "lon": 34.7895312}, {"type": "node", "id": 352710189, "lat": 2.6833807, "lon": 34.7904198}, {"type": "node", "id": 352710212, "lat": 2.6558329, "lon": 34.7991898}, {"type": "node", "id": 352710228, "lat": 2.620881, "lon": 34.8316137}, {"type": "node", "id": 352710241, "lat": 2.6042146, "lon": 34.8385359}, {"type": "node", "id": 352710250, "lat": 2.5835779, "lon": 34.852185}, {"type": "node", "id": 352710257, "lat": 2.5705875, "lon": 34.8682472}, {"type": "node", "id": 352710260, "lat": 2.5723992, "lon": 34.8783483}, {"type": "node", "id": 352710262, "lat": 2.5894225, "lon": 34.8805261}, {"type": "node", "id": 352710266, "lat": 2.5928566, "lon": 34.8938648}, {"type": "node", "id": 352710272, "lat": 2.5880139, "lon": 34.8973068}, {"type": "node", "id": 352710287, "lat": 2.5542317, "lon": 34.90387}, {"type": "node", "id": 352710302, "lat": 2.5165849, "lon": 34.9129964}, {"type": "node", "id": 352710304, "lat": 2.5163359, "lon": 34.9224038}, {"type": "node", "id": 352710310, "lat": 2.5159403, "lon": 34.9330601}, {"type": "node", "id": 352710312, "lat": 2.5156779, "lon": 34.9331783}, {"type": "node", "id": 352710313, "lat": 2.5114892, "lon": 34.9346948}, {"type": "node", "id": 352710314, "lat": 2.5085859, "lon": 34.9352732}, {"type": "node", "id": 352710315, "lat": 2.5035572, "lon": 34.9361693}, {"type": "node", "id": 352710318, "lat": 2.4999034, "lon": 34.9367826}, {"type": "node", "id": 352710321, "lat": 2.4772482, "lon": 34.9463541}, {"type": "node", "id": 352710322, "lat": 2.4728961, "lon": 34.9483379}, {"type": "node", "id": 352710323, "lat": 2.4721996, "lon": 34.9485431}, {"type": "node", "id": 352710324, "lat": 2.4724718, "lon": 34.9540335}, {"type": "node", "id": 352710325, "lat": 2.4724079, "lon": 34.9544121}, {"type": "node", "id": 352710326, "lat": 2.471044, "lon": 34.9534437}, {"type": "node", "id": 352710328, "lat": 2.4700661, "lon": 34.9543648}, {"type": "node", "id": 352710329, "lat": 2.4694052, "lon": 34.9549347}, {"type": "node", "id": 352710331, "lat": 2.4685191, "lon": 34.9549772}, {"type": "node", "id": 352710332, "lat": 2.4672447, "lon": 34.9546242}, {"type": "node", "id": 352710333, "lat": 2.465699, "lon": 34.9542702}, {"type": "node", "id": 352710335, "lat": 2.4644611, "lon": 34.9537414}, {"type": "node", "id": 352710336, "lat": 2.4634854, "lon": 34.9531691}, {"type": "node", "id": 352710338, "lat": 2.4624733, "lon": 34.9527727}, {"type": "node", "id": 352710339, "lat": 2.4611897, "lon": 34.9525511}, {"type": "node", "id": 352710341, "lat": 2.4598688, "lon": 34.9530762}, {"type": "node", "id": 352710342, "lat": 2.4592262, "lon": 34.9534793}, {"type": "node", "id": 352710343, "lat": 2.4585205, "lon": 34.9537946}, {"type": "node", "id": 352710345, "lat": 2.4578513, "lon": 34.9538987}, {"type": "node", "id": 352710346, "lat": 2.4576075, "lon": 34.9536174}, {"type": "node", "id": 352710348, "lat": 2.45739, "lon": 34.95291}, {"type": "node", "id": 352710349, "lat": 2.45718, "lon": 34.95207}, {"type": "node", "id": 352710351, "lat": 2.45687, "lon": 34.9514}, {"type": "node", "id": 352710352, "lat": 2.4563, "lon": 34.95087}, {"type": "node", "id": 352710353, "lat": 2.45591, "lon": 34.95031}, {"type": "node", "id": 352710355, "lat": 2.45606, "lon": 34.94947}, {"type": "node", "id": 352710357, "lat": 2.45634, "lon": 34.94884}, {"type": "node", "id": 352710359, "lat": 2.45599, "lon": 34.94824}, {"type": "node", "id": 352710360, "lat": 2.45545, "lon": 34.94771}, {"type": "node", "id": 352710362, "lat": 2.45464, "lon": 34.94708}, {"type": "node", "id": 352710363, "lat": 2.4517886, "lon": 34.9462928}, {"type": "node", "id": 352710375, "lat": 2.4526039, "lon": 34.9452399}, {"type": "node", "id": 352710376, "lat": 2.452034, "lon": 34.9454498}, {"type": "node", "id": 352710377, "lat": 2.4516446, "lon": 34.9458712}, {"type": "node", "id": 352710378, "lat": 2.4529209, "lon": 34.944924}, {"type": "node", "id": 352710379, "lat": 2.4528491, "lon": 34.9445374}, {"type": "node", "id": 352710384, "lat": 2.4518287, "lon": 34.9436577}, {"type": "node", "id": 352710385, "lat": 2.448964, "lon": 34.9425641}, {"type": "node", "id": 352710386, "lat": 2.4486107, "lon": 34.9429856}, {"type": "node", "id": 352710387, "lat": 2.4497788, "lon": 34.9418276}, {"type": "node", "id": 352710388, "lat": 2.4515402, "lon": 34.9430246}, {"type": "node", "id": 352710389, "lat": 2.4512246, "lon": 34.9424269}, {"type": "node", "id": 352710391, "lat": 2.4505925, "lon": 34.9418641}, {"type": "node", "id": 352710392, "lat": 2.4465233, "lon": 34.9421044}, {"type": "node", "id": 352710393, "lat": 2.4480135, "lon": 34.943301}, {"type": "node", "id": 352710395, "lat": 2.4473712, "lon": 34.9435108}, {"type": "node", "id": 352710396, "lat": 2.446883, "lon": 34.9434399}, {"type": "node", "id": 352710398, "lat": 2.4464952, "lon": 34.9428067}, {"type": "node", "id": 352710399, "lat": 2.4473755, "lon": 34.9405594}, {"type": "node", "id": 352710400, "lat": 2.4478376, "lon": 34.9398925}, {"type": "node", "id": 352710401, "lat": 2.4477295, "lon": 34.9396115}, {"type": "node", "id": 352710402, "lat": 2.4473047, "lon": 34.9394704}, {"type": "node", "id": 352710403, "lat": 2.4466349, "lon": 34.939961}, {"type": "node", "id": 352710404, "lat": 2.4461736, "lon": 34.9401008}, {"type": "node", "id": 352710405, "lat": 2.4457486, "lon": 34.9401356}, {"type": "node", "id": 352710406, "lat": 2.4453604, "lon": 34.9397131}, {"type": "node", "id": 352710407, "lat": 2.4451175, "lon": 34.9388694}, {"type": "node", "id": 352710408, "lat": 2.4447654, "lon": 34.9384475}, {"type": "node", "id": 352710409, "lat": 2.4435272, "lon": 34.9380946}, {"type": "node", "id": 352710410, "lat": 2.4425244, "lon": 34.9375487}, {"type": "node", "id": 352710412, "lat": 2.4421, "lon": 34.9370913}, {"type": "node", "id": 352710414, "lat": 2.4418205, "lon": 34.9365639}, {"type": "node", "id": 352710416, "lat": 2.4413958, "lon": 34.936352}, {"type": "node", "id": 352710417, "lat": 2.4406179, "lon": 34.936597}, {"type": "node", "id": 352710419, "lat": 2.4402287, "lon": 34.9368425}, {"type": "node", "id": 352710420, "lat": 2.4397317, "lon": 34.9366311}, {"type": "node", "id": 352710421, "lat": 2.4388177, "lon": 34.9371917}, {"type": "node", "id": 352710423, "lat": 2.4383925, "lon": 34.9372967}, {"type": "node", "id": 352710424, "lat": 2.4381394, "lon": 34.9372609}, {"type": "node", "id": 352710426, "lat": 2.4393066, "lon": 34.9367356}, {"type": "node", "id": 352710427, "lat": 2.4375795, "lon": 34.9368033}, {"type": "node", "id": 352710429, "lat": 2.4371191, "lon": 34.9362757}, {"type": "node", "id": 352710430, "lat": 2.4364868, "lon": 34.935818}, {"type": "node", "id": 352710432, "lat": 2.4357367, "lon": 34.935536}, {"type": "node", "id": 352710433, "lat": 2.4354932, "lon": 34.9351491}, {"type": "node", "id": 352710435, "lat": 2.4360637, "lon": 34.9345178}, {"type": "node", "id": 352710436, "lat": 2.4366971, "lon": 34.9342372}, {"type": "node", "id": 352710438, "lat": 2.4368785, "lon": 34.9338515}, {"type": "node", "id": 352710439, "lat": 2.4365176, "lon": 34.9333239}, {"type": "node", "id": 352710441, "lat": 2.4363102, "lon": 34.9329017}, {"type": "node", "id": 352710442, "lat": 2.4364922, "lon": 34.9321288}, {"type": "node", "id": 352710444, "lat": 2.4367371, "lon": 34.9315673}, {"type": "node", "id": 352710445, "lat": 2.4367014, "lon": 34.9312161}, {"type": "node", "id": 352710447, "lat": 2.4361321, "lon": 34.9309692}, {"type": "node", "id": 352710448, "lat": 2.4341247, "lon": 34.9310714}, {"type": "node", "id": 352710449, "lat": 2.4329216, "lon": 34.9314214}, {"type": "node", "id": 352710451, "lat": 2.4320715, "lon": 34.9315253}, {"type": "node", "id": 352710452, "lat": 2.4306972, "lon": 34.9314885}, {"type": "node", "id": 352710454, "lat": 2.4302357, "lon": 34.9317339}, {"type": "node", "id": 352710455, "lat": 2.4297738, "lon": 34.9322603}, {"type": "node", "id": 352710456, "lat": 2.4293126, "lon": 34.9322945}, {"type": "node", "id": 352710457, "lat": 2.4286257, "lon": 34.9321002}, {"type": "node", "id": 352710458, "lat": 2.4277419, "lon": 34.9304831}, {"type": "node", "id": 352710459, "lat": 2.4270375, "lon": 34.9298494}, {"type": "node", "id": 352710460, "lat": 2.427076, "lon": 34.9282336}, {"type": "node", "id": 352710461, "lat": 2.4266502, "lon": 34.9287948}, {"type": "node", "id": 352710462, "lat": 2.4265044, "lon": 34.9296026}, {"type": "node", "id": 352710463, "lat": 2.4268696, "lon": 34.9271438}, {"type": "node", "id": 352710464, "lat": 2.4263749, "lon": 34.925316}, {"type": "node", "id": 352710466, "lat": 2.4258048, "lon": 34.9256669}, {"type": "node", "id": 352710467, "lat": 2.4252073, "lon": 34.9261577}, {"type": "node", "id": 352710469, "lat": 2.4248551, "lon": 34.925806}, {"type": "node", "id": 352710470, "lat": 2.4247844, "lon": 34.9246816}, {"type": "node", "id": 352710471, "lat": 2.4247501, "lon": 34.9234169}, {"type": "node", "id": 352710473, "lat": 2.4246425, "lon": 34.9227487}, {"type": "node", "id": 352710474, "lat": 2.4243633, "lon": 34.9219757}, {"type": "node", "id": 352710475, "lat": 2.423903, "lon": 34.9214127}, {"type": "node", "id": 352710476, "lat": 2.4231622, "lon": 34.92092}, {"type": "node", "id": 352710477, "lat": 2.4226662, "lon": 34.9200405}, {"type": "node", "id": 352710478, "lat": 2.4221428, "lon": 34.9192672}, {"type": "node", "id": 352710479, "lat": 2.4220732, "lon": 34.9174046}, {"type": "node", "id": 352710480, "lat": 2.4218906, "lon": 34.9186342}, {"type": "node", "id": 352710481, "lat": 2.4218281, "lon": 34.9180723}, {"type": "node", "id": 352710482, "lat": 2.4223905, "lon": 34.916773}, {"type": "node", "id": 352710483, "lat": 2.4223911, "lon": 34.9163864}, {"type": "node", "id": 352710485, "lat": 2.421758, "lon": 34.9164558}, {"type": "node", "id": 352710486, "lat": 2.4206997, "lon": 34.9167352}, {"type": "node", "id": 352710488, "lat": 2.4195334, "lon": 34.9166633}, {"type": "node", "id": 352710489, "lat": 2.4186113, "lon": 34.9164867}, {"type": "node", "id": 352710491, "lat": 2.4175174, "lon": 34.9163796}, {"type": "node", "id": 352710492, "lat": 2.4171642, "lon": 34.9167656}, {"type": "node", "id": 352710494, "lat": 2.4170552, "lon": 34.917152}, {"type": "node", "id": 352710495, "lat": 2.4167387, "lon": 34.9171864}, {"type": "node", "id": 352710497, "lat": 2.4152566, "lon": 34.9165871}, {"type": "node", "id": 352710498, "lat": 2.4145785, "lon": 34.9165513}, {"type": "node", "id": 352710499, "lat": 2.413448, "lon": 34.916725}, {"type": "node", "id": 352710501, "lat": 2.4114585, "lon": 34.9168807}, {"type": "node", "id": 352710502, "lat": 2.4103286, "lon": 34.916633}, {"type": "node", "id": 352710504, "lat": 2.4097592, "lon": 34.9164563}, {"type": "node", "id": 352710505, "lat": 2.4089454, "lon": 34.9164552}, {"type": "node", "id": 352710507, "lat": 2.4082397, "lon": 34.9167705}, {"type": "node", "id": 352710508, "lat": 2.4076338, "lon": 34.9168399}, {"type": "node", "id": 352710509, "lat": 2.4073176, "lon": 34.9166288}, {"type": "node", "id": 352710512, "lat": 2.4069296, "lon": 34.9160664}, {"type": "node", "id": 352710515, "lat": 2.4052026, "lon": 34.916064}, {"type": "node", "id": 352710518, "lat": 2.4044616, "lon": 34.9157466}, {"type": "node", "id": 352710519, "lat": 2.402519, "lon": 34.9146196}, {"type": "node", "id": 352710524, "lat": 2.4016333, "lon": 34.9143369}, {"type": "node", "id": 352710527, "lat": 2.400648, "lon": 34.91409},