{"version": 0.6, "generator": "Overpass API 0.7.62.1 084b4234", "osm3s": {"timestamp_osm_base": "2024-11-19T03:22:26Z", "copyright": "The data included in this document is from www.openstreetmap.org. The data is made available under ODbL."}, "elements": [{"type": "node", "id": 27565076, "lat": 9.0358287, "lon": 38.7524127, "tags": {"admin_level": "2", "capital": "yes", "capital_ISO3166-1": "yes", "ele": "2355", "is_capital": "country", "name": "\u12a0\u12f2\u1235 \u12a0\u1260\u1263 / Addis Ababa", "name:af": "Addis Abeba", "name:am": "\u12a0\u12f2\u1235 \u12a0\u1260\u1263", "name:an": "Addis Abeba", "name:ar": "\u0623\u062f\u064a\u0633 \u0623\u0628\u0627\u0628\u0627", "name:arz": "\u0627\u062f\u064a\u0633 \u0627\u0628\u0627\u0628\u0627", "name:az": "\u018fddis-\u018fb\u0259b\u0259", "name:bat-smg": "Adis Abeba", "name:be": "\u0410\u0434\u044b\u0441-\u0410\u0431\u0435\u0431\u0430", "name:be-tarask": "\u0410\u0434\u044b\u0441-\u0410\u0431\u044d\u0431\u0430", "name:bg": "\u0410\u0434\u0438\u0441 \u0410\u0431\u0435\u0431\u0430", "name:bn": "\u0986\u09a6\u09cd\u09a6\u09bf\u09b8 \u0986\u09ac\u09be\u09ac\u09be", "name:bo": "\u0f68\u0f0b\u0f4c\u0f72\u0f0b\u0f66\u0f72\u0f0b\u0f68\u0f0b\u0f56\u0f0b\u0f56\u0f0d", "name:br": "Addis Abeba", "name:bs": "Adis Abeba", "name:ca": "Addis Abeba", "name:ckb": "\u0626\u0627\u062f\u06cc\u0633 \u0626\u0627\u0628\u0627\u0628\u0627", "name:cs": "Addis Abeba", "name:de": "Addis Abeba", "name:el": "\u0391\u03bd\u03c4\u03af\u03c2 \u0391\u03bc\u03c0\u03ad\u03bc\u03c0\u03b1", "name:en": "Addis Ababa", "name:eo": "Adis-Abebo", "name:es": "Ad\u00eds Abeba", "name:et": "Addis Abeba", "name:eu": "Addis Abeba", "name:fa": "\u0622\u062f\u06cc\u0633 \u0622\u0628\u0627\u0628\u0627", "name:fi": "Addis Abeba", "name:fr": "Addis-Abeba", "name:fy": "Addis Abeba", "name:ga": "Adas Ababa", "name:gl": "Ad\u00eds Abeba - \u12a0\u12f2\u1235 \u12a0\u1260\u1263", "name:he": "\u05d0\u05d3\u05d9\u05e1 \u05d0\u05d1\u05d1\u05d4", "name:hi": "\u0905\u0926\u0940\u0938 \u0905\u092c\u093e\u092c\u093e", "name:hr": "Adis Abeba", "name:ht": "Adis-Abeba", "name:hu": "Addisz-Abeba", "name:hy": "\u0531\u0564\u056b\u057d \u0531\u0562\u0565\u0562\u0561", "name:ie": "Addis Abeba", "name:it": "Addis Abeba", "name:ja": "\u30a2\u30c7\u30a3\u30b9\u30a2\u30d9\u30d0", "name:ka": "\u10d0\u10d3\u10d8\u10e1-\u10d0\u10d1\u10d4\u10d1\u10d0", "name:kab": "Addis Abeba", "name:kn": "\u0c85\u0ca1\u0cbf\u0cb8\u0ccd \u0c85\u0cac\u0cbe\u0cac", "name:ko": "\uc544\ub514\uc2a4\uc544\ubc14\ubc14", "name:ku": "Add\u00ees Ababa", "name:ky": "\u0410\u0434\u0434\u0438\u0441-\u0410\u0431\u0435\u0431\u0430", "name:la": "Neanthopolis", "name:lb": "Addis Abeba", "name:lt": "Adis Abeba", "name:lv": "Adisabeba", "name:mg": "Addis Abeba", "name:mk": "\u0410\u0434\u0438\u0441 \u0410\u0431\u0435\u0431\u0430", "name:ml": "\u0d05\u0d21\u0d3f\u0d38\u0d4d \u0d05\u0d2c\u0d46\u0d2c", "name:mn": "\u0410\u0434\u0434\u0438\u0441-\u0410\u0431\u0435\u0431\u0430", "name:mr": "\u0905\u0926\u093f\u0938 \u0905\u092c\u093e\u092c\u093e", "name:mrj": "\u0410\u0434\u0434\u0438\u0441-\u0410\u0431\u0435\u0431\u0430", "name:my": "\u1021\u102c\u1012\u1005\u103a \u1021\u102c\u1018\u102c\u1018\u102c\u1019\u103c\u102d\u102f\u1037", "name:nah": "Adis Abeba", "name:new": "\u0905\u0926\u093f\u0938 \u0905\u092c\u093e\u092c\u093e", "name:nl": "Addis Abeba", "name:nn": "Addis Abeba", "name:no": "Addis Abeba", "name:nov": "Adis Ababa", "name:oc": "Addis Abeba", "name:om": "Finfinne", "name:os": "\u0410\u0434\u0434\u0438\u0441-\u0410\u0431\u0435\u0431\u00e6", "name:pa": "\u0a06\u0a26\u0a3f\u0a38 \u0a06\u0a2c\u0a2c\u0a3e", "name:pl": "Addis Abeba", "name:pnb": "\u0627\u062f\u06cc\u0633 \u0627\u0628\u0627\u0628\u0627", "name:pt": "Adis Abeba", "name:qu": "Adis Ababa", "name:rm": "Addis Abeba", "name:ro": "Addis Abeba", "name:ru": "\u0410\u0434\u0434\u0438\u0441-\u0410\u0431\u0435\u0431\u0430", "name:sh": "Adis Abeba", "name:sk": "Addis Abeba", "name:sl": "Adis Abeba", "name:so": "Addis Abeba", "name:sq": "Addis Abeba", "name:sr": "\u0410\u0434\u0438\u0441 \u0410\u0431\u0435\u0431\u0430", "name:sv": "Addis Abeba", "name:ta": "\u0b85\u0b9f\u0bbf\u0bb8\u0bcd \u0b85\u0baa\u0bbe\u0baa\u0bbe", "name:tg": "\u0410\u0434\u0434\u0438\u0441-\u0410\u0431\u0435\u0431\u0430", "name:th": "\u0e41\u0e2d\u0e14\u0e14\u0e34\u0e2a\u0e2d\u0e32\u0e1a\u0e32\u0e1a\u0e32", "name:tl": "Adis Abeba", "name:tr": "Addis Ababa", "name:udm": "\u0410\u0434\u0434\u0438\u0441-\u0410\u0431\u0435\u0431\u0430", "name:uk": "\u0410\u0434\u0434\u0438\u0441-\u0410\u0431\u0435\u0431\u0430", "name:ur": "\u0627\u062f\u06cc\u0633 \u0627\u0628\u0627\u0628\u0627", "name:wo": "Addis-Abeba", "name:zh": "\u4e9e\u7684\u65af\u4e9e\u8c9d\u5df4/\u4e9a\u7684\u65af\u4e9a\u8d1d\u5df4", "name:zh-Hans": "\u4e9a\u7684\u65af\u4e9a\u8d1d\u5df4", "name:zh-Hant-CN": "\u4e9e\u7684\u65af\u4e9e\u8c9d\u5df4", "name:zh-Hant-HK": "\u4e9e\u7684\u65af\u4e9e\u8c9d\u5df4", "name:zh-Hant-TW": "\u963f\u8fea\u65af\u963f\u8c9d\u5df4", "place": "city", "population": "3500000", "wikidata": "Q3624", "wikipedia": "de:Addis Abeba"}}, {"type": "node", "id": 27565105, "lat": -1.2832533, "lon": 36.8172449, "tags": {"admin_level": "2", "capital": "yes", "capital_ISO3166-1": "yes", "ele": "1661", "is_capital": "country", "name": "Nairobi", "name:am": "\u1293\u12ed\u122e\u1262", "name:ar": "\u0646\u064a\u0631\u0648\u0628\u064a", "name:arz": "\u0646\u0627\u064a\u0631\u0648\u0628\u0649", "name:az": "Nayrobi", "name:azb": "\u0646\u0627\u06cc\u0631\u0648\u0628\u06cc", "name:bat-smg": "Nairobis", "name:be": "\u041d\u0430\u0439\u0440\u043e\u0431\u0456", "name:be-tarask": "\u041d\u0430\u0439\u0440\u043e\u0431\u0456", "name:bg": "\u041d\u0430\u0439\u0440\u043e\u0431\u0438", "name:bn": "\u09a8\u09be\u0987\u09b0\u09cb\u09ac\u09bf", "name:bo": "\u0f53\u0f60\u0f72\u0f0b\u0f62\u0f7c\u0f0b\u0f56\u0f72\u0f0d", "name:br": "Nairobi", "name:ckb": "\u0646\u0627\u06cc\u0631\u06c6\u0628\u06cc", "name:cs": "Nairobi", "name:de": "Nairobi", "name:el": "\u039d\u03b1\u03ca\u03c1\u03cc\u03bc\u03c0\u03b9", "name:en": "Nairobi", "name:eo": "Najrobo", "name:es": "Nairobi", "name:fa": "\u0646\u0627\u06cc\u0631\u0648\u0628\u06cc", "name:fr": "Nairobi", "name:fy": "Nairoby", "name:grc": "\u039d\u03b1\u03ca\u03c1\u03cc\u03b2\u03b9\u03bf\u03bd", "name:he": "\u05e0\u05d9\u05d9\u05e8\u05d5\u05d1\u05d9", "name:hi": "\u0928\u0948\u0930\u094b\u092c\u0940", "name:ht": "Nayrobi", "name:hu": "Nairobi", "name:hy": "\u0546\u0561\u0575\u0580\u0578\u0562\u056b", "name:id": "Nairobi", "name:is": "Na\u00edr\u00f3b\u00ed", "name:it": "Nairobi", "name:ja": "\u30ca\u30a4\u30ed\u30d3", "name:ka": "\u10dc\u10d0\u10d8\u10e0\u10dd\u10d1\u10d8", "name:kk": "\u041d\u0430\u0439\u0440\u043e\u0431\u0438", "name:kn": "\u0ca8\u0cc8\u0cb0\u0ccb\u0cac\u0cbf", "name:ko": "\ub098\uc774\ub85c\ube44", "name:ku": "Nairob\u00ee", "name:ky": "\u041d\u0430\u0439\u0440\u043e\u0431\u0438", "name:la": "Nairobia", "name:lez": "\u041d\u0430\u0439\u0440\u043e\u0431\u0438", "name:lt": "Nairobis", "name:mk": "\u041d\u0430\u0458\u0440\u043e\u0431\u0438", "name:ml": "\u0d28\u0d2f\u0d4d\u0d31\u0d4b\u0d2c\u0d3f", "name:mn": "\u041d\u0430\u0439\u0440\u043e\u0431\u0438", "name:mr": "\u0928\u0948\u0930\u094b\u092c\u0940", "name:mrj": "\u041d\u0430\u0439\u0440\u043e\u0431\u0438", "name:my": "\u1014\u102d\u102f\u1004\u103a\u101b\u102d\u102f\u1018\u102e\u1019\u103c\u102d\u102f\u1037", "name:nl": "Nairobi", "name:no": "Nairobi", "name:nov": "Nayrobi", "name:oc": "Nair\u00f2bi", "name:os": "\u041d\u0430\u0439\u0440\u043e\u0431\u0438", "name:pa": "\u0a28\u0a3e\u0a07\u0a30\u0a4b\u0a2c\u0a40", "name:pl": "Nairobi", "name:pms": "Nair\u00f2bi", "name:pnb": "\u0646\u06cc\u0631\u0648\u0628\u06cc", "name:pt": "Nair\u00f3bi", "name:ru": "\u041d\u0430\u0439\u0440\u043e\u0431\u0438", "name:rue": "\u041d\u0430\u0439\u0440\u043e\u0431\u0456", "name:sah": "\u041d\u0430\u0439\u0440\u043e\u0431\u0438", "name:sk": "Nairobi", "name:so": "Nayroobi", "name:sr": "\u041d\u0430\u0458\u0440\u043e\u0431\u0438", "name:sv": "Nairobi", "name:sw": "Nairobi", "name:ta": "\u0ba8\u0bc8\u0bb0\u0bcb\u0baa\u0bbf", "name:tg": "\u041d\u0430\u0439\u0440\u043e\u0431\u0438", "name:th": "\u0e44\u0e19\u0e42\u0e23\u0e1a\u0e35", "name:tk": "Na\u00fdrobi", "name:tr": "Nairobi", "name:tt": "\u041d\u0430\u0439\u0440\u043e\u0431\u0438", "name:udm": "\u041d\u0430\u0439\u0440\u043e\u0431\u0438", "name:ug": "\u0646\u0627\u064a\u0631\u0648\u0628\u0649", "name:uk": "\u041d\u0430\u0439\u0440\u043e\u0431\u0456", "name:ur": "\u0646\u06cc\u0631\u0648\u0628\u06cc", "name:wuu": "\u5185\u7f57\u6bd5", "name:yi": "\u05e0\u05d9\u05d9\u05e8\u05d0\u05d1\u05d9", "name:yue": "\u5948\u6d1b\u6bd4", "name:zh": "\u5185\u7f57\u6bd5/\u5167\u7f85\u7562/\u5948\u6d1b\u6bd4", "name:zh-Hans": "\u5185\u7f57\u6bd5", "name:zh-Hant": "\u5167\u7f85\u7562/\u5948\u6d1b\u6bd4", "place": "city", "population": "3138295", "source:population": "wikipedia, 2009", "wikidata": "Q3870", "wikipedia": "de:Nairobi"}}, {"type": "node", "id": 44914091, "lat": 1.7504651, "lon": 40.0594959, "tags": {"alt_name": "El Sadi", "is_in": "Wajir,Kenya", "name": "Wajir", "place": "town", "population": "82800", "wikidata": "Q730791", "wikipedia": "en:Wajir"}}, {"type": "node", "id": 44929360, "lat": 2.3380612, "lon": 37.991639, "tags": {"is_in": "Marsabit,Kenya", "name": "Marsabit", "name:ru": "\u041c\u0430\u0440\u0441\u0430\u0431\u0438\u0442", "place": "town", "population": "5000", "wikidata": "Q1709128", "wikipedia": "en:Marsabit"}}, {"type": "node", "id": 223617766, "lat": -4.6745703, "lon": 39.207397}, {"type": "node", "id": 223617770, "lat": -4.6762695, "lon": 39.2084538}, {"type": "node", "id": 223617774, "lat": -4.6750442, "lon": 39.2088255}, {"type": "node", "id": 223617928, "lat": -4.6808496, "lon": 39.2179399}, {"type": "node", "id": 223618100, "lat": -4.6767207, "lon": 39.2080555}, {"type": "node", "id": 223619066, "lat": -4.6696557, "lon": 39.193813}, {"type": "node", "id": 223655052, "lat": -4.673379, "lon": 39.20605}, {"type": "node", "id": 223655159, "lat": -4.669107, "lon": 39.1988127}, {"type": "node", "id": 223655165, "lat": -4.669037, "lon": 39.1957912}, {"type": "node", "id": 223655169, "lat": -4.6716632, "lon": 39.2045042}, {"type": "node", "id": 223655173, "lat": -4.6695272, "lon": 39.2021854}, {"type": "node", "id": 237498687, "lat": 8.5410261, "lon": 39.2705461, "tags": {"admin_level": "8", "ele": "1712", "name": "\u12a0\u12f3\u121b / Adama", "name:am": "\u12a0\u12f3\u121b", "name:ar": "\u0623\u062f\u0627\u0645\u0627", "name:be": "\u0410\u0434\u0430\u043c\u0430", "name:br": "Adama", "name:cs": "Adama", "name:de": "Adama (\u00c4thiopien)", "name:el": "\u0391\u03b4\u03ac\u03bc\u03b1", "name:en": "Adama", "name:eo": "Adamo (urbo)", "name:es": "Adama", "name:et": "Adama", "name:eu": "Adama", "name:fr": "Adama", "name:he": "\u05d0\u05d3\u05d0\u05de\u05d4", "name:hr": "Adama", "name:hu": "Adama", "name:hy": "\u0531\u0564\u0561\u0574\u0561", "name:it": "Adama", "name:ja": "\u30a2\u30c0\u30de", "name:jv": "Adama", "name:ka": "\u10d0\u10d3\u10d0\u10db\u10d0", "name:ko": "\uc544\ub2e4\ub9c8", "name:ml": "\u0d05\u0d26\u0d3e\u0d2e", "name:mn": "\u041d\u0430\u0437\u0440\u0435\u0442", "name:nl": "Adama (stad)", "name:om": "Adaamaa", "name:pl": "Adama", "name:ro": "Adama", "name:ru": "\u0410\u0434\u0430\u043c\u0430", "name:sn": "Adama", "name:sw": "Adama", "name:tr": "Adama", "name:uk": "\u0410\u0434\u0430\u043c\u0430", "name:vi": "Adama", "name:zh": "\u963f\u9054\u746a (\u57c3\u585e\u4fc4\u6bd4\u4e9a)", "name:zu": "Adama, Itiyopiya", "old_name": "Nazret", "old_name:am": "\u1293\u12dd\u122c\u1275", "old_name:ru": "\u041d\u0430\u0437\u0440\u0435\u0442", "place": "city", "population": "228623", "wikidata": "Q351427", "wikipedia": "en:Adama"}}, {"type": "node", "id": 244246672, "lat": 4.618889, "lon": 35.845278}, {"type": "node", "id": 244246673, "lat": 4.619444, "lon": 35.838611}, {"type": "node", "id": 244246674, "lat": 4.2340766, "lon": 33.9877616}, {"type": "node", "id": 244246675, "lat": 4.619167, "lon": 35.831944}, {"type": "node", "id": 244246677, "lat": 4.619167, "lon": 35.825}, {"type": "node", "id": 244246679, "lat": 4.618889, "lon": 35.8725}, {"type": "node", "id": 244246681, "lat": 4.619444, "lon": 35.865833}, {"type": "node", "id": 244246683, "lat": 4.619444, "lon": 35.858889}, {"type": "node", "id": 244246685, "lat": 4.619167, "lon": 35.852222}, {"type": "node", "id": 244246687, "lat": 4.619722, "lon": 35.899722}, {"type": "node", "id": 244246689, "lat": 4.619444, "lon": 35.892778}, {"type": "node", "id": 244246691, "lat": 4.619444, "lon": 35.886111}, {"type": "node", "id": 244246692, "lat": 4.281944, "lon": 34.056389, "tags": {"created_by": "JOSM"}}, {"type": "node", "id": 244246693, "lat": 4.619167, "lon": 35.879167}, {"type": "node", "id": 244246694, "lat": 4.288056, "lon": 34.063056, "tags": {"created_by": "JOSM"}}, {"type": "node", "id": 244246695, "lat": 4.619722, "lon": 35.926667}, {"type": "node", "id": 244246701, "lat": 4.295, "lon": 34.069722, "tags": {"created_by": "JOSM"}}, {"type": "node", "id": 244246702, "lat": 4.619722, "lon": 35.92}, {"type": "node", "id": 244246703, "lat": 4.301111, "lon": 34.076389, "tags": {"created_by": "JOSM"}}, {"type": "node", "id": 244246704, "lat": 4.619444, "lon": 35.913333}, {"type": "node", "id": 244246705, "lat": 4.3075, "lon": 34.082778, "tags": {"created_by": "JOSM"}}, {"type": "node", "id": 244246706, "lat": 4.619167, "lon": 35.906389}, {"type": "node", "id": 244246707, "lat": 4.314444, "lon": 34.089444, "tags": {"created_by": "JOSM"}}, {"type": "node", "id": 244246708, "lat": 4.618333, "lon": 35.73}, {"type": "node", "id": 244246709, "lat": 4.3275, "lon": 34.102778, "tags": {"created_by": "JOSM"}}, {"type": "node", "id": 244246710, "lat": 4.618611, "lon": 35.736944}, {"type": "node", "id": 244246711, "lat": 4.320556, "lon": 34.096111, "tags": {"created_by": "JOSM"}}, {"type": "node", "id": 244246712, "lat": 4.618056, "lon": 35.716667}, {"type": "node", "id": 244246716, "lat": 4.340833, "lon": 34.116111, "tags": {"created_by": "JOSM"}}, {"type": "node", "id": 244246717, "lat": 4.618333, "lon": 35.723333}, {"type": "node", "id": 244246718, "lat": 4.333889, "lon": 34.109444, "tags": {"created_by": "JOSM"}}, {"type": "node", "id": 244246719, "lat": 4.618611, "lon": 35.757222}, {"type": "node", "id": 244246720, "lat": 4.353889, "lon": 34.129167, "tags": {"created_by": "JOSM"}}, {"type": "node", "id": 244246721, "lat": 4.618611, "lon": 35.763889}, {"type": "node", "id": 244246722, "lat": 4.347222, "lon": 34.122778, "tags": {"created_by": "JOSM"}}, {"type": "node", "id": 244246723, "lat": 4.618056, "lon": 35.743611}, {"type": "node", "id": 244246724, "lat": 4.367222, "lon": 34.1425, "tags": {"created_by": "JOSM"}}, {"type": "node", "id": 244246725, "lat": 4.618333, "lon": 35.750556}, {"type": "node", "id": 244246726, "lat": 4.360278, "lon": 34.135833, "tags": {"created_by": "JOSM"}}, {"type": "node", "id": 244246727, "lat": 4.618611, "lon": 35.784444}, {"type": "node", "id": 244246731, "lat": 4.379722, "lon": 34.155833, "tags": {"created_by": "JOSM"}}, {"type": "node", "id": 244246732, "lat": 4.618889, "lon": 35.791111}, {"type": "node", "id": 244246733, "lat": 4.373333, "lon": 34.149167, "tags": {"created_by": "JOSM"}}, {"type": "node", "id": 244246734, "lat": 4.618889, "lon": 35.770833}, {"type": "node", "id": 244246735, "lat": 4.392778, "lon": 34.168889, "tags": {"created_by": "JOSM"}}, {"type": "node", "id": 244246736, "lat": 4.618333, "lon": 35.7775}, {"type": "node", "id": 244246737, "lat": 4.386667, "lon": 34.1625, "tags": {"created_by": "JOSM"}}, {"type": "node", "id": 244246738, "lat": 4.618611, "lon": 35.811389}, {"type": "node", "id": 244246739, "lat": 4.406111, "lon": 34.182222, "tags": {"created_by": "JOSM"}}, {"type": "node", "id": 244246740, "lat": 4.618889, "lon": 35.818333}, {"type": "node", "id": 244246741, "lat": 4.399722, "lon": 34.175556, "tags": {"created_by": "JOSM"}}, {"type": "node", "id": 244246742, "lat": 4.618889, "lon": 35.798056}, {"type": "node", "id": 244246743, "lat": 4.419167, "lon": 34.195556, "tags": {"created_by": "JOSM"}}, {"type": "node", "id": 244246751, "lat": 4.619167, "lon": 35.804722}, {"type": "node", "id": 244246761, "lat": 4.413056, "lon": 34.188889, "tags": {"created_by": "JOSM"}}, {"type": "node", "id": 244246770, "lat": 4.439444, "lon": 34.215278, "tags": {"created_by": "JOSM"}}, {"type": "node", "id": 244246780, "lat": 4.445556, "lon": 34.221944, "tags": {"created_by": "JOSM"}}, {"type": "node", "id": 244246784, "lat": 4.426111, "lon": 34.202222, "tags": {"created_by": "JOSM"}}, {"type": "node", "id": 244246785, "lat": 4.4325, "lon": 34.208611, "tags": {"created_by": "JOSM"}}, {"type": "node", "id": 244246786, "lat": 4.465, "lon": 34.241944, "tags": {"created_by": "JOSM"}}, {"type": "node", "id": 244246787, "lat": 4.471944, "lon": 34.248333, "tags": {"created_by": "JOSM"}}, {"type": "node", "id": 244246788, "lat": 4.4525, "lon": 34.228611, "tags": {"created_by": "JOSM"}}, {"type": "node", "id": 244246789, "lat": 4.458889, "lon": 34.235278, "tags": {"created_by": "JOSM"}}, {"type": "node", "id": 244246790, "lat": 4.491389, "lon": 34.268333, "tags": {"created_by": "JOSM"}}, {"type": "node", "id": 244246791, "lat": 4.498333, "lon": 34.275, "tags": {"created_by": "JOSM"}}, {"type": "node", "id": 244246792, "lat": 4.478056, "lon": 34.255, "tags": {"created_by": "JOSM"}}, {"type": "node", "id": 244246793, "lat": 4.485, "lon": 34.261667, "tags": {"created_by": "JOSM"}}, {"type": "node", "id": 244246794, "lat": 4.517778, "lon": 34.294722, "tags": {"created_by": "JOSM"}}, {"type": "node", "id": 244246795, "lat": 4.524722, "lon": 34.301389, "tags": {"created_by": "JOSM"}}, {"type": "node", "id": 244246800, "lat": 4.504444, "lon": 34.281667, "tags": {"created_by": "JOSM"}}, {"type": "node", "id": 244246801, "lat": 4.511389, "lon": 34.288056, "tags": {"created_by": "JOSM"}}, {"type": "node", "id": 244246802, "lat": 4.62, "lon": 35.933611}, {"type": "node", "id": 244246803, "lat": 4.550278, "lon": 34.327778, "tags": {"created_by": "JOSM"}}, {"type": "node", "id": 244246804, "lat": 4.619444, "lon": 35.938333}, {"type": "node", "id": 244246805, "lat": 4.544167, "lon": 34.321389, "tags": {"created_by": "JOSM"}}, {"type": "node", "id": 244246806, "lat": 4.537222, "lon": 34.314722, "tags": {"created_by": "JOSM"}}, {"type": "node", "id": 244246807, "lat": 4.530833, "lon": 34.308056, "tags": {"created_by": "JOSM"}}, {"type": "node", "id": 244246808, "lat": 4.576667, "lon": 34.354444, "tags": {"created_by": "JOSM"}}, {"type": "node", "id": 244246809, "lat": 4.570278, "lon": 34.347778, "tags": {"created_by": "JOSM"}}, {"type": "node", "id": 244246810, "lat": 4.563611, "lon": 34.341111, "tags": {"created_by": "JOSM"}}, {"type": "node", "id": 244246811, "lat": 4.557222, "lon": 34.334444, "tags": {"created_by": "JOSM"}}, {"type": "node", "id": 244246812, "lat": 4.603056, "lon": 34.380833, "tags": {"created_by": "JOSM"}}, {"type": "node", "id": 244246813, "lat": 4.596667, "lon": 34.374167, "tags": {"created_by": "JOSM"}}, {"type": "node", "id": 244246814, "lat": 4.589722, "lon": 34.3675, "tags": {"created_by": "JOSM"}}, {"type": "node", "id": 244246815, "lat": 4.583611, "lon": 34.361111, "tags": {"created_by": "JOSM"}}, {"type": "node", "id": 244246816, "lat": 4.610556, "lon": 34.407778, "tags": {"created_by": "JOSM"}}, {"type": "node", "id": 244246817, "lat": 4.610278, "lon": 34.401111, "tags": {"created_by": "JOSM"}}, {"type": "node", "id": 244246818, "lat": 4.61, "lon": 34.394167, "tags": {"created_by": "JOSM"}}, {"type": "node", "id": 244246819, "lat": 4.61, "lon": 34.3875, "tags": {"created_by": "JOSM"}}, {"type": "node", "id": 244246820, "lat": 4.610556, "lon": 34.441667, "tags": {"created_by": "JOSM"}}, {"type": "node", "id": 244246821, "lat": 4.610833, "lon": 34.448333, "tags": {"created_by": "JOSM"}}, {"type": "node", "id": 244246822, "lat": 4.610278, "lon": 34.455278, "tags": {"created_by": "JOSM"}}, {"type": "node", "id": 244246823, "lat": 4.610556, "lon": 34.461944, "tags": {"created_by": "JOSM"}}, {"type": "node", "id": 244246824, "lat": 4.610556, "lon": 34.414444, "tags": {"created_by": "JOSM"}}, {"type": "node", "id": 244246825, "lat": 4.61, "lon": 34.421389, "tags": {"created_by": "JOSM"}}, {"type": "node", "id": 244246826, "lat": 4.610278, "lon": 34.428056, "tags": {"created_by": "JOSM"}}, {"type": "node", "id": 244246827, "lat": 4.610556, "lon": 34.435, "tags": {"created_by": "JOSM"}}, {"type": "node", "id": 244246828, "lat": 4.610556, "lon": 34.495833, "tags": {"created_by": "JOSM"}}, {"type": "node", "id": 244246829, "lat": 4.610833, "lon": 34.502778, "tags": {"created_by": "JOSM"}}, {"type": "node", "id": 244246830, "lat": 4.611111, "lon": 34.509444, "tags": {"created_by": "JOSM"}}, {"type": "node", "id": 244246831, "lat": 4.611111, "lon": 34.516389, "tags": {"created_by": "JOSM"}}, {"type": "node", "id": 244246832, "lat": 4.610556, "lon": 34.468889, "tags": {"created_by": "JOSM"}}, {"type": "node", "id": 244246833, "lat": 4.610833, "lon": 34.475556, "tags": {"created_by": "JOSM"}}, {"type": "node", "id": 244246834, "lat": 4.611111, "lon": 34.482222, "tags": {"created_by": "JOSM"}}, {"type": "node", "id": 244246835, "lat": 4.610556, "lon": 34.489167, "tags": {"created_by": "JOSM"}}, {"type": "node", "id": 244246836, "lat": 4.610833, "lon": 34.556944, "tags": {"created_by": "JOSM"}}, {"type": "node", "id": 244246837, "lat": 4.611389, "lon": 34.550278, "tags": {"created_by": "JOSM"}}, {"type": "node", "id": 244246838, "lat": 4.611111, "lon": 34.570556, "tags": {"created_by": "JOSM"}}, {"type": "node", "id": 244246854, "lat": 4.611111, "lon": 34.563889, "tags": {"created_by": "JOSM"}}, {"type": "node", "id": 244246855, "lat": 4.610833, "lon": 34.529722, "tags": {"created_by": "JOSM"}}, {"type": "node", "id": 244246856, "lat": 4.610556, "lon": 34.523056, "tags": {"created_by": "JOSM"}}, {"type": "node", "id": 244246857, "lat": 4.611111, "lon": 34.543333, "tags": {"created_by": "JOSM"}}, {"type": "node", "id": 244246858, "lat": 4.611111, "lon": 34.536667, "tags": {"created_by": "JOSM"}}, {"type": "node", "id": 244246859, "lat": 4.611667, "lon": 34.611111, "tags": {"created_by": "JOSM"}}, {"type": "node", "id": 244246860, "lat": 4.611389, "lon": 34.604444, "tags": {"created_by": "JOSM"}}, {"type": "node", "id": 244246861, "lat": 4.611111, "lon": 34.624722, "tags": {"created_by": "JOSM"}}, {"type": "node", "id": 244246862, "lat": 4.611667, "lon": 34.618056, "tags": {"created_by": "JOSM"}}, {"type": "node", "id": 244246863, "lat": 4.611667, "lon": 34.584167, "tags": {"created_by": "JOSM"}}, {"type": "node", "id": 244246864, "lat": 4.611389, "lon": 34.577222, "tags": {"created_by": "JOSM"}}, {"type": "node", "id": 244246865, "lat": 4.611111, "lon": 34.597778, "tags": {"created_by": "JOSM"}}, {"type": "node", "id": 244246866, "lat": 4.611111, "lon": 34.590833, "tags": {"created_by": "JOSM"}}, {"type": "node", "id": 244246867, "lat": 4.611667, "lon": 34.672222, "tags": {"created_by": "JOSM"}}, {"type": "node", "id": 244246868, "lat": 4.611944, "lon": 34.678889, "tags": {"created_by": "JOSM"}}, {"type": "node", "id": 244246869, "lat": 4.611389, "lon": 34.658611, "tags": {"created_by": "JOSM"}}, {"type": "node", "id": 244246870, "lat": 4.611667, "lon": 34.665556, "tags": {"created_by": "JOSM"}}, {"type": "node", "id": 244246871, "lat": 4.611667, "lon": 34.645, "tags": {"created_by": "JOSM"}}, {"type": "node", "id": 244246872, "lat": 4.611111, "lon": 34.651944, "tags": {"created_by": "JOSM"}}, {"type": "node", "id": 244246873, "lat": 4.611389, "lon": 34.631667, "tags": {"created_by": "JOSM"}}, {"type": "node", "id": 244246874, "lat": 4.611667, "lon": 34.638333, "tags": {"created_by": "JOSM"}}, {"type": "node", "id": 244246876, "lat": 4.611944, "lon": 34.726389, "tags": {"created_by": "JOSM"}}, {"type": "node", "id": 244246877, "lat": 4.611944, "lon": 34.733333, "tags": {"created_by": "JOSM"}}, {"type": "node", "id": 244246878, "lat": 4.612222, "lon": 34.713056, "tags": {"created_by": "JOSM"}}, {"type": "node", "id": 244246879, "lat": 4.611667, "lon": 34.719722, "tags": {"created_by": "JOSM"}}, {"type": "node", "id": 244246880, "lat": 4.611667, "lon": 34.699444, "tags": {"created_by": "JOSM"}}, {"type": "node", "id": 244246881, "lat": 4.611944, "lon": 34.706111, "tags": {"created_by": "JOSM"}}, {"type": "node", "id": 244246882, "lat": 4.611389, "lon": 34.685833, "tags": {"created_by": "JOSM"}}, {"type": "node", "id": 244246883, "lat": 4.611667, "lon": 34.6925, "tags": {"created_by": "JOSM"}}, {"type": "node", "id": 244246884, "lat": 4.611944, "lon": 34.7875, "tags": {"created_by": "JOSM"}}, {"type": "node", "id": 244246885, "lat": 4.6125, "lon": 34.780833, "tags": {"created_by": "JOSM"}}, {"type": "node", "id": 244246886, "lat": 4.6125, "lon": 34.773889, "tags": {"created_by": "JOSM"}}, {"type": "node", "id": 244246887, "lat": 4.612222, "lon": 34.767222, "tags": {"created_by": "JOSM"}}, {"type": "node", "id": 244246888, "lat": 4.611944, "lon": 34.760278, "tags": {"created_by": "JOSM"}}, {"type": "node", "id": 244246889, "lat": 4.611944, "lon": 34.753611, "tags": {"created_by": "JOSM"}}, {"type": "node", "id": 244246890, "lat": 4.612222, "lon": 34.746944, "tags": {"created_by": "JOSM"}}, {"type": "node", "id": 244246891, "lat": 4.612222, "lon": 34.74, "tags": {"created_by": "JOSM"}}, {"type": "node", "id": 244246892, "lat": 4.612778, "lon": 34.841667, "tags": {"created_by": "JOSM"}}, {"type": "node", "id": 244246893, "lat": 4.6125, "lon": 34.835, "tags": {"created_by": "JOSM"}}, {"type": "node", "id": 244246894, "lat": 4.6125, "lon": 34.828333, "tags": {"created_by": "JOSM"}}, {"type": "node", "id": 244246895, "lat": 4.612222, "lon": 34.821389, "tags": {"created_by": "JOSM"}}, {"type": "node", "id": 244246896, "lat": 4.612778, "lon": 34.814722, "tags": {"created_by": "JOSM"}}, {"type": "node", "id": 244246897, "lat": 4.6125, "lon": 34.807778, "tags": {"created_by": "JOSM"}}, {"type": "node", "id": 244246898, "lat": 4.6125, "lon": 34.801111, "tags": {"created_by": "JOSM"}}, {"type": "node", "id": 244246899, "lat": 4.612222, "lon": 34.794444, "tags": {"created_by": "JOSM"}}, {"type": "node", "id": 244246900, "lat": 4.613056, "lon": 34.909444, "tags": {"created_by": "JOSM"}}, {"type": "node", "id": 244246901, "lat": 4.613056, "lon": 34.902778, "tags": {"created_by": "JOSM"}}, {"type": "node", "id": 244246904, "lat": 4.612778, "lon": 34.923056, "tags": {"created_by": "JOSM"}}, {"type": "node", "id": 244246905, "lat": 4.612778, "lon": 34.916389, "tags": {"created_by": "JOSM"}}, {"type": "node", "id": 244246906, "lat": 4.613056, "lon": 34.936667, "tags": {"created_by": "JOSM"}}, {"type": "node", "id": 244246907, "lat": 4.613056, "lon": 34.93, "tags": {"created_by": "JOSM"}}, {"type": "node", "id": 244246908, "lat": 4.612778, "lon": 34.950278, "tags": {"created_by": "JOSM"}}, {"type": "node", "id": 244246909, "lat": 4.613333, "lon": 34.943611, "tags": {"created_by": "JOSM"}}, {"type": "node", "id": 244246910, "lat": 4.6125, "lon": 34.855278, "tags": {"created_by": "JOSM"}}, {"type": "node", "id": 244246911, "lat": 4.612778, "lon": 34.848611, "tags": {"created_by": "JOSM"}}, {"type": "node", "id": 244246912, "lat": 4.612778, "lon": 34.868889, "tags": {"created_by": "JOSM"}}, {"type": "node", "id": 244246913, "lat": 4.612778, "lon": 34.862222, "tags": {"created_by": "JOSM"}}, {"type": "node", "id": 244246914, "lat": 4.6125, "lon": 34.8825, "tags": {"created_by": "JOSM"}}, {"type": "node", "id": 244246915, "lat": 4.613056, "lon": 34.875556, "tags": {"created_by": "JOSM"}}, {"type": "node", "id": 244246916, "lat": 4.612778, "lon": 34.896111, "tags": {"created_by": "JOSM"}}, {"type": "node", "id": 244246917, "lat": 4.612778, "lon": 34.889167, "tags": {"created_by": "JOSM"}}, {"type": "node", "id": 244246918, "lat": 4.613889, "lon": 35.011389, "tags": {"created_by": "JOSM"}}, {"type": "node", "id": 244246919, "lat": 4.613333, "lon": 35.018056, "tags": {"created_by": "JOSM"}}, {"type": "node", "id": 244246920, "lat": 4.613611, "lon": 35.025, "tags": {"created_by": "JOSM"}}, {"type": "node", "id": 244246921, "lat": 4.613611, "lon": 35.031667, "tags": {"created_by": "JOSM"}}, {"type": "node", "id": 244246922, "lat": 4.613889, "lon": 35.038333, "tags": {"created_by": "JOSM"}}, {"type": "node", "id": 244246923, "lat": 4.613889, "lon": 35.045278, "tags": {"created_by": "JOSM"}}, {"type": "node", "id": 244246924, "lat": 4.613611, "lon": 35.051944, "tags": {"created_by": "JOSM"}}, {"type": "node", "id": 244246925, "lat": 4.613611, "lon": 35.058889, "tags": {"created_by": "JOSM"}}, {"type": "node", "id": 244246926, "lat": 4.613056, "lon": 34.956944, "tags": {"created_by": "JOSM"}}, {"type": "node", "id": 244246927, "lat": 4.613333, "lon": 34.963889, "tags": {"created_by": "JOSM"}}, {"type": "node", "id": 244246928, "lat": 4.613333, "lon": 34.970556, "tags": {"created_by": "JOSM"}}, {"type": "node", "id": 244246929, "lat": 4.613611, "lon": 34.9775, "tags": {"created_by": "JOSM"}}, {"type": "node", "id": 244246930, "lat": 4.613056, "lon": 34.984167, "tags": {"created_by": "JOSM"}}, {"type": "node", "id": 244246931, "lat": 4.613333, "lon": 34.990833, "tags": {"created_by": "JOSM"}}, {"type": "node", "id": 244246932, "lat": 4.613333, "lon": 34.997778, "tags": {"created_by": "JOSM"}}, {"type": "node", "id": 244246933, "lat": 4.613611, "lon": 35.004444, "tags": {"created_by": "JOSM"}}, {"type": "node", "id": 244246934, "lat": 4.614444, "lon": 35.140278, "tags": {"created_by": "JOSM"}}, {"type": "node", "id": 244246935, "lat": 4.614444, "lon": 35.133333, "tags": {"created_by": "JOSM"}}, {"type": "node", "id": 244246936, "lat": 4.614167, "lon": 35.126667, "tags": {"created_by": "JOSM"}}, {"type": "node", "id": 244246937, "lat": 4.613889, "lon": 35.119722, "tags": {"created_by": "JOSM"}}, {"type": "node", "id": 244246940, "lat": 4.614444, "lon": 35.167222, "tags": {"created_by": "JOSM"}}, {"type": "node", "id": 244246941, "lat": 4.614444, "lon": 35.160556, "tags": {"created_by": "JOSM"}}, {"type": "node", "id": 244246942, "lat": 4.614167, "lon": 35.153611, "tags": {"created_by": "JOSM"}}, {"type": "node", "id": 244246943, "lat": 4.613889, "lon": 35.146944, "tags": {"created_by": "JOSM"}}, {"type": "node", "id": 244246944, "lat": 4.613611, "lon": 35.085833, "tags": {"created_by": "JOSM"}}, {"type": "node", "id": 244246945, "lat": 4.614167, "lon": 35.079167, "tags": {"created_by": "JOSM"}}, {"type": "node", "id": 244246946, "lat": 4.614167, "lon": 35.072222, "tags": {"created_by": "JOSM"}}, {"type": "node", "id": 244246947, "lat": 4.613889, "lon": 35.065556, "tags": {"created_by": "JOSM"}}, {"type": "node", "id": 244246948, "lat": 4.614444, "lon": 35.113056, "tags": {"created_by": "JOSM"}}, {"type": "node", "id": 244246949, "lat": 4.614167, "lon": 35.106111, "tags": {"created_by": "JOSM"}}, {"type": "node", "id": 244246950, "lat": 4.614167, "lon": 35.099444, "tags": {"created_by": "JOSM"}}, {"type": "node", "id": 244246951, "lat": 4.613889, "lon": 35.092778, "tags": {"created_by": "JOSM"}}, {"type": "node", "id": 244246952, "lat": 4.615278, "lon": 35.241944, "tags": {"created_by": "JOSM"}}, {"type": "node", "id": 244246953, "lat": 4.614722, "lon": 35.248611, "tags": {"created_by": "JOSM"}}, {"type": "node", "id": 244246954, "lat": 4.614722, "lon": 35.228333, "tags": {"created_by": "JOSM"}}, {"type": "node", "id": 244246955, "lat": 4.615, "lon": 35.235, "tags": {"created_by": "JOSM"}}, {"type": "node", "id": 244246956, "lat": 4.615278, "lon": 35.268889, "tags": {"created_by": "JOSM"}}, {"type": "node", "id": 244246957, "lat": 4.615556, "lon": 35.275833, "tags": {"created_by": "JOSM"}}, {"type": "node", "id": 244246958, "lat": 4.615, "lon": 35.255556, "tags": {"created_by": "JOSM"}}, {"type": "node", "id": 244246959, "lat": 4.615, "lon": 35.262222, "tags": {"created_by": "JOSM"}}, {"type": "node", "id": 244246960, "lat": 4.614444, "lon": 35.1875, "tags": {"created_by": "JOSM"}}, {"type": "node", "id": 244246961, "lat": 4.614722, "lon": 35.194444, "tags": {"created_by": "JOSM"}}, {"type": "node", "id": 244246962, "lat": 4.614722, "lon": 35.174167, "tags": {"created_by": "JOSM"}}, {"type": "node", "id": 244246963, "lat": 4.614167, "lon": 35.180833, "tags": {"created_by": "JOSM"}}, {"type": "node", "id": 244246964, "lat": 4.614444, "lon": 35.214722, "tags": {"created_by": "JOSM"}}, {"type": "node", "id": 244246965, "lat": 4.614722, "lon": 35.221389, "tags": {"created_by": "JOSM"}}, {"type": "node", "id": 244246966, "lat": 4.614722, "lon": 35.201111, "tags": {"created_by": "JOSM"}}, {"type": "node", "id": 244246967, "lat": 4.615, "lon": 35.208056, "tags": {"created_by": "JOSM"}}, {"type": "node", "id": 244246968, "lat": 4.616111, "lon": 35.370833, "tags": {"created_by": "JOSM"}}, {"type": "node", "id": 244246976, "lat": 4.615833, "lon": 35.363889, "tags": {"created_by": "JOSM"}}, {"type": "node", "id": 244246977, "lat": 4.615556, "lon": 35.384167, "tags": {"created_by": "JOSM"}}, {"type": "node", "id": 244246978, "lat": 4.615556, "lon": 35.3775, "tags": {"created_by": "JOSM"}}, {"type": "node", "id": 244246979, "lat": 4.615833, "lon": 35.343611, "tags": {"created_by": "JOSM"}}, {"type": "node", "id": 244246980, "lat": 4.615833, "lon": 35.336944, "tags": {"created_by": "JOSM"}}, {"type": "node", "id": 244246981, "lat": 4.615556, "lon": 35.357222, "tags": {"created_by": "JOSM"}}, {"type": "node", "id": 244246982, "lat": 4.615556, "lon": 35.350278, "tags": {"created_by": "JOSM"}}, {"type": "node", "id": 244246983, "lat": 4.615278, "lon": 35.316389, "tags": {"created_by": "JOSM"}}, {"type": "node", "id": 244246984, "lat": 4.615833, "lon": 35.309722, "tags": {"created_by": "JOSM"}}, {"type": "node", "id": 244246985, "lat": 4.615556, "lon": 35.33, "tags": {"created_by": "JOSM"}}, {"type": "node", "id": 244246986, "lat": 4.615278, "lon": 35.323333, "tags": {"created_by": "JOSM"}}, {"type": "node", "id": 244246987, "lat": 4.615278, "lon": 35.289444, "tags": {"created_by": "JOSM"}}, {"type": "node", "id": 244246988, "lat": 4.615, "lon": 35.2825, "tags": {"created_by": "JOSM"}}, {"type": "node", "id": 244246989, "lat": 4.615556, "lon": 35.302778, "tags": {"created_by": "JOSM"}}, {"type": "node", "id": 244246990, "lat": 4.615278, "lon": 35.296111, "tags": {"created_by": "JOSM"}}, {"type": "node", "id": 244246991, "lat": 4.616667, "lon": 35.4725, "tags": {"created_by": "JOSM"}}, {"type": "node", "id": 244246992, "lat": 4.616389, "lon": 35.479167, "tags": {"created_by": "JOSM"}}, {"type": "node", "id": 244246993, "lat": 4.616389, "lon": 35.486111, "tags": {"created_by": "JOSM"}}, {"type": "node", "id": 244246994, "lat": 4.616667, "lon": 35.492778, "tags": {"created_by": "JOSM"}}, {"type": "node", "id": 244246995, "lat": 4.616111, "lon": 35.445278, "tags": {"created_by": "JOSM"}}, {"type": "node", "id": 244246996, "lat": 4.616111, "lon": 35.452222, "tags": {"created_by": "JOSM"}}, {"type": "node", "id": 244246997, "lat": 4.616389, "lon": 35.458889, "tags": {"created_by": "JOSM"}}, {"type": "node", "id": 244246998, "lat": 4.616667, "lon": 35.465556, "tags": {"created_by": "JOSM"}}, {"type": "node", "id": 244246999, "lat": 4.615833, "lon": 35.418056, "tags": {"created_by": "JOSM"}}, {"type": "node", "id": 244247000, "lat": 4.616111, "lon": 35.425, "tags": {"created_by": "JOSM"}}, {"type": "node", "id": 244247001, "lat": 4.616389, "lon": 35.431667, "tags": {"created_by": "JOSM"}}, {"type": "node", "id": 244247002, "lat": 4.616389, "lon": 35.438611, "tags": {"created_by": "JOSM"}}, {"type": "node", "id": 244247003, "lat": 4.615833, "lon": 35.391111, "tags": {"created_by": "JOSM"}}, {"type": "node", "id": 244247004, "lat": 4.616111, "lon": 35.397778, "tags": {"created_by": "JOSM"}}, {"type": "node", "id": 244247005, "lat": 4.616111, "lon": 35.404722, "tags": {"created_by": "JOSM"}}, {"type": "node", "id": 244247006, "lat": 4.615833, "lon": 35.411389, "tags": {"created_by": "JOSM"}}, {"type": "node", "id": 244247027, "lat": 4.616944, "lon": 35.506389, "tags": {"created_by": "JOSM"}}, {"type": "node", "id": 244247028, "lat": 4.616944, "lon": 35.499444, "tags": {"created_by": "JOSM"}}, {"type": "node", "id": 244247029, "lat": 4.618333, "lon": 35.703056}, {"type": "node", "id": 244247030, "lat": 4.617778, "lon": 35.709722}, {"type": "node", "id": 244247031, "lat": 4.618056, "lon": 35.689444, "tags": {"created_by": "JOSM"}}, {"type": "node", "id": 244247032, "lat": 4.618056, "lon": 35.696111, "tags": {"created_by": "JOSM"}}, {"type": "node", "id": 244247033, "lat": 4.6175, "lon": 35.675833, "tags": {"created_by": "JOSM"}}, {"type": "node", "id": 244247034, "lat": 4.617778, "lon": 35.682778, "tags": {"created_by": "JOSM"}}, {"type": "node", "id": 244247035, "lat": 4.617778, "lon": 35.662222, "tags": {"created_by": "JOSM"}}, {"type": "node", "id": 244247036, "lat": 4.618056, "lon": 35.669167, "tags": {"created_by": "JOSM"}}, {"type": "node", "id": 244247037, "lat": 4.6175, "lon": 35.648611, "tags": {"created_by": "JOSM"}}, {"type": "node", "id": 244247038, "lat": 4.617778, "lon": 35.655556, "tags": {"created_by": "JOSM"}}, {"type": "node", "id": 244247043, "lat": 4.617778, "lon": 35.635278, "tags": {"created_by": "JOSM"}}, {"type": "node", "id": 244247044, "lat": 4.617222, "lon": 35.641944, "tags": {"created_by": "JOSM"}}, {"type": "node", "id": 244247045, "lat": 4.6175, "lon": 35.621667, "tags": {"created_by": "JOSM"}}, {"type": "node", "id": 244247046, "lat": 4.6175, "lon": 35.628333, "tags": {"created_by": "JOSM"}}, {"type": "node", "id": 244247052, "lat": 4.617222, "lon": 35.614722, "tags": {"created_by": "JOSM"}}, {"type": "node", "id": 244248252, "lat": 4.6178071, "lon": 35.6081289, "tags": {"created_by": "JOSM"}}, {"type": "node", "id": 244250496, "lat": 10.840278, "lon": 34.665556}, {"type": "node", "id": 244250497, "lat": 10.8425, "lon": 34.660556}, {"type": "node", "id": 244250499, "lat": 10.845278, "lon": 34.656389}, {"type": "node", "id": 244250501, "lat": 10.8475, "lon": 34.651667}, {"type": "node", "id": 244250503, "lat": 10.8275, "lon": 34.680556}, {"type": "node", "id": 244250505, "lat": 10.831111, "lon": 34.677222}, {"type": "node", "id": 244250507, "lat": 10.834722, "lon": 34.673889}, {"type": "node", "id": 244250509, "lat": 10.8375, "lon": 34.669722}, {"type": "node", "id": 244250511, "lat": 10.813611, "lon": 34.694167}, {"type": "node", "id": 244250513, "lat": 10.816944, "lon": 34.690833}, {"type": "node", "id": 244250515, "lat": 10.820556, "lon": 34.6875}, {"type": "node", "id": 244250517, "lat": 10.824167, "lon": 34.683889}, {"type": "node", "id": 244250519, "lat": 10.802222, "lon": 34.710833}, {"type": "node", "id": 244250521, "lat": 10.805, "lon": 34.706667}, {"type": "node", "id": 244250523, "lat": 10.807778, "lon": 34.7025}, {"type": "node", "id": 244250525, "lat": 10.810833, "lon": 34.698333}, {"type": "node", "id": 244250527, "lat": 10.887778, "lon": 34.594444}, {"type": "node", "id": 244250529, "lat": 10.885, "lon": 34.598611}, {"type": "node", "id": 244250531, "lat": 10.867222, "lon": 34.563889}, {"type": "node", "id": 244250533, "lat": 10.879167, "lon": 34.581667}, {"type": "node", "id": 244250535, "lat": 10.876389, "lon": 34.611111}, {"type": "node", "id": 244250537, "lat": 10.873611, "lon": 34.615278}, {"type": "node", "id": 244250539, "lat": 10.882222, "lon": 34.602778}, {"type": "node", "id": 244250541, "lat": 10.879444, "lon": 34.606944}, {"type": "node", "id": 244250543, "lat": 10.864444, "lon": 34.626944}, {"type": "node", "id": 244250545, "lat": 10.861667, "lon": 34.631111}, {"type": "node", "id": 244250547, "lat": 10.870833, "lon": 34.619167}, {"type": "node", "id": 244250549, "lat": 10.868056, "lon": 34.623333}, {"type": "node", "id": 244250551, "lat": 10.853056, "lon": 34.643333}, {"type": "node", "id": 244250553, "lat": 10.850278, "lon": 34.6475}, {"type": "node", "id": 244250555, "lat": 10.858889, "lon": 34.635}, {"type": "node", "id": 244250557, "lat": 10.856111, "lon": 34.639167}, {"type": "node", "id": 244250559, "lat": 10.741111, "lon": 34.775278}, {"type": "node", "id": 244250561, "lat": 10.745833, "lon": 34.773333}, {"type": "node", "id": 244250563, "lat": 10.729444, "lon": 34.776944}, {"type": "node", "id": 244250565, "lat": 10.735556, "lon": 34.776389}, {"type": "node", "id": 244250567, "lat": 10.716944, "lon": 34.775278}, {"type": "node", "id": 244250569, "lat": 10.723333, "lon": 34.776111}, {"type": "node", "id": 244250571, "lat": 10.705278, "lon": 34.773056}, {"type": "node", "id": 244250573, "lat": 10.710833, "lon": 34.774444}, {"type": "node", "id": 244250575, "lat": 10.6925, "lon": 34.771944}, {"type": "node", "id": 244250577, "lat": 10.698611, "lon": 34.772778}, {"type": "node", "id": 244250579, "lat": 10.684722, "lon": 34.778056}, {"type": "node", "id": 244250581, "lat": 10.686944, "lon": 34.773333}, {"type": "node", "id": 244250583, "lat": 10.686667, "lon": 34.788611}, {"type": "node", "id": 244250585, "lat": 10.683889, "lon": 34.784444}, {"type": "node", "id": 244250587, "lat": 10.696667, "lon": 34.7925}, {"type": "node", "id": 244250589, "lat": 10.691389, "lon": 34.790833}, {"type": "node", "id": 244250591, "lat": 10.798611, "lon": 34.714167}, {"type": "node", "id": 244250593, "lat": 10.795278, "lon": 34.717778}, {"type": "node", "id": 244250595, "lat": 10.791111, "lon": 34.720278}, {"type": "node", "id": 244250597, "lat": 10.786944, "lon": 34.723056}, {"type": "node", "id": 244250599, "lat": 10.781944, "lon": 34.725}, {"type": "node", "id": 244250601, "lat": 10.777778, "lon": 34.727778}, {"type": "node", "id": 244250603, "lat": 10.773056, "lon": 34.729722}, {"type": "node", "id": 244250605, "lat": 10.769444, "lon": 34.733056}, {"type": "node", "id": 244250607, "lat": 10.767222, "lon": 34.738056}, {"type": "node", "id": 244250609, "lat": 10.765278, "lon": 34.742778}, {"type": "node", "id": 244250611, "lat": 10.763056, "lon": 34.747778}, {"type": "node", "id": 244250613, "lat": 10.760833, "lon": 34.7525}, {"type": "node", "id": 244250615, "lat": 10.758056, "lon": 34.7575}, {"type": "node", "id": 244250617, "lat": 10.755833, "lon": 34.762222}, {"type": "node", "id": 244250619, "lat": 10.753056, "lon": 34.766389}, {"type": "node", "id": 244250621, "lat": 10.749444, "lon": 34.769722}, {"type": "node", "id": 244250623, "lat": 10.765833, "lon": 34.873056}, {"type": "node", "id": 244250625, "lat": 10.760278, "lon": 34.874167}, {"type": "node", "id": 244250627, "lat": 10.754722, "lon": 34.872778}, {"type": "node", "id": 244250629, "lat": 10.749444, "lon": 34.871111}, {"type": "node", "id": 244250631, "lat": 10.744444, "lon": 34.868889}, {"type": "node", "id": 244250633, "lat": 10.739722, "lon": 34.866667}, {"type": "node", "id": 244250635, "lat": 10.735, "lon": 34.864444}, {"type": "node", "id": 244250637, "lat": 10.731667, "lon": 34.861111}, {"type": "node", "id": 244250639, "lat": 10.837778, "lon": 34.939722}, {"type": "node", "id": 244250641, "lat": 10.825278, "lon": 34.921944}, {"type": "node", "id": 244250643, "lat": 10.811667, "lon": 34.904167}, {"type": "node", "id": 244250645, "lat": 10.798333, "lon": 34.886389}, {"type": "node", "id": 244250647, "lat": 10.785833, "lon": 34.868611}, {"type": "node", "id": 244250649, "lat": 10.782222, "lon": 34.869167}, {"type": "node", "id": 244250651, "lat": 10.776944, "lon": 34.870278}, {"type": "node", "id": 244250653, "lat": 10.771389, "lon": 34.871667}, {"type": "node", "id": 244250655, "lat": 10.729444, "lon": 34.808611}, {"type": "node", "id": 244250657, "lat": 10.731389, "lon": 34.813333}, {"type": "node", "id": 244250659, "lat": 10.723333, "lon": 34.800556}, {"type": "node", "id": 244250661, "lat": 10.726111, "lon": 34.805}, {"type": "node", "id": 244250663, "lat": 10.713889, "lon": 34.796389}, {"type": "node", "id": 244250665, "lat": 10.719444, "lon": 34.797778}, {"type": "node", "id": 244250667, "lat": 10.703056, "lon": 34.793333}, {"type": "node", "id": 244250669, "lat": 10.708333, "lon": 34.794722}, {"type": "node", "id": 244250671, "lat": 10.726389, "lon": 34.8525}, {"type": "node", "id": 244250673, "lat": 10.728889, "lon": 34.856667}, {"type": "node", "id": 244250675, "lat": 10.729444, "lon": 34.841389}, {"type": "node", "id": 244250677, "lat": 10.727222, "lon": 34.846111}, {"type": "node", "id": 244250679, "lat": 10.733056, "lon": 34.830833}, {"type": "node", "id": 244250681, "lat": 10.730833, "lon": 34.835833}, {"type": "node", "id": 244250683, "lat": 10.733333, "lon": 34.818333}, {"type": "node", "id": 244250685, "lat": 10.733889, "lon": 34.824722}, {"type": "node", "id": 244250687, "lat": 11.198333, "lon": 35.0075}, {"type": "node", "id": 244250689, "lat": 11.174444, "lon": 35.005556}, {"type": "node", "id": 244250692, "lat": 11.222222, "lon": 34.980556}, {"type": "node", "id": 244250694, "lat": 11.127222, "lon": 34.989722}, {"type": "node", "id": 244250696, "lat": 11.110278, "lon": 34.983611}, {"type": "node", "id": 244250698, "lat": 11.161389, "lon": 35.000833}, {"type": "node", "id": 244250700, "lat": 11.144444, "lon": 34.995}, {"type": "node", "id": 244250710, "lat": 10.915278, "lon": 34.978611}, {"type": "node", "id": 244250712, "lat": 10.930833, "lon": 34.961389}, {"type": "node", "id": 244250714, "lat": 10.946389, "lon": 34.944167}, {"type": "node", "id": 244250716, "lat": 10.956667, "lon": 34.933333}, {"type": "node", "id": 244250718, "lat": 10.851111, "lon": 34.9575}, {"type": "node", "id": 244250720, "lat": 10.864444, "lon": 34.975278}, {"type": "node", "id": 244250722, "lat": 10.881667, "lon": 34.976389}, {"type": "node", "id": 244250724, "lat": 10.898889, "lon": 34.9775}, {"type": "node", "id": 244250726, "lat": 11.041944, "lon": 34.961111}, {"type": "node", "id": 244250728, "lat": 11.059167, "lon": 34.967222}, {"type": "node", "id": 244250730, "lat": 11.076111, "lon": 34.9725}, {"type": "node", "id": 244250732, "lat": 11.093056, "lon": 34.978333}, {"type": "node", "id": 244250734, "lat": 10.973889, "lon": 34.938611}, {"type": "node", "id": 244250736, "lat": 10.990833, "lon": 34.944444}, {"type": "node", "id": 244250738, "lat": 11.008056, "lon": 34.949722}, {"type": "node", "id": 244250740, "lat": 11.025, "lon": 34.955833}, {"type": "node", "id": 244250742, "lat": 9.500001, "lon": 34.106678}, {"type": "node", "id": 244250744, "lat": 9.553056, "lon": 34.085833}, {"type": "node", "id": 244250748, "lat": 9.570278, "lon": 34.090278}, {"type": "node", "id": 244250758, "lat": 9.723889, "lon": 34.130833}, {"type": "node", "id": 244250759, "lat": 9.740833, "lon": 34.135556}, {"type": "node", "id": 244250760, "lat": 9.758056, "lon": 34.14}, {"type": "node", "id": 244250761, "lat": 9.758611, "lon": 34.140833}, {"type": "node", "id": 244250762, "lat": 9.775833, "lon": 34.148056}, {"type": "node", "id": 244250763, "lat": 9.792778, "lon": 34.156111}, {"type": "node", "id": 244250764, "lat": 9.809722, "lon": 34.163333}, {"type": "node", "id": 244250765, "lat": 9.826944, "lon": 34.171389}, {"type": "node", "id": 244250766, "lat": 9.587222, "lon": 34.094722}, {"type": "node", "id": 244250767, "lat": 9.604444, "lon": 34.099167}, {"type": "node", "id": 244250768, "lat": 9.621389, "lon": 34.103889}, {"type": "node", "id": 244250769, "lat": 9.638611, "lon": 34.108333}, {"type": "node", "id": 244250770, "lat": 9.655556, "lon": 34.112778}, {"type": "node", "id": 244250771, "lat": 9.672778, "lon": 34.1175}, {"type": "node", "id": 244250772, "lat": 9.689722, "lon": 34.121944}, {"type": "node", "id": 244250773, "lat": 9.706944, "lon": 34.126389}, {"type": "node", "id": 244250774, "lat": 10.025, "lon": 34.229722}, {"type": "node", "id": 244250775, "lat": 10.007778, "lon": 34.226667}, {"type": "node", "id": 244250776, "lat": 9.990556, "lon": 34.223611}, {"type": "node", "id": 244250777, "lat": 9.973611, "lon": 34.219722}, {"type": "node", "id": 244250778, "lat": 10.080833, "lon": 34.284722}, {"type": "node", "id": 244250779, "lat": 10.063889, "lon": 34.266944}, {"type": "node", "id": 244250780, "lat": 10.047222, "lon": 34.249167}, {"type": "node", "id": 244250781, "lat": 10.030278, "lon": 34.231389}, {"type": "node", "id": 244250782, "lat": 9.895, "lon": 34.201944}, {"type": "node", "id": 244250783, "lat": 9.877778, "lon": 34.194722}, {"type": "node", "id": 244250784, "lat": 9.860833, "lon": 34.186667}, {"type": "node", "id": 244250785, "lat": 9.843889, "lon": 34.178611}, {"type": "node", "id": 244250786, "lat": 9.956389, "lon": 34.216667}, {"type": "node", "id": 244250787, "lat": 9.939444, "lon": 34.213333}, {"type": "node", "id": 244250788, "lat": 9.922222, "lon": 34.210278}, {"type": "node", "id": 244250789, "lat": 9.905, "lon": 34.207222}, {"type": "node", "id": 244250790, "lat": 10.182222, "lon": 34.336389}, {"type": "node", "id": 244250791, "lat": 10.1875, "lon": 34.337778}, {"type": "node", "id": 244250792, "lat": 10.173889, "lon": 34.330556}, {"type": "node", "id": 244250793, "lat": 10.178056, "lon": 34.333333}, {"type": "node", "id": 244250794, "lat": 10.205556, "lon": 34.335278}, {"type": "node", "id": 244250795, "lat": 10.211667, "lon": 34.334722}, {"type": "node", "id": 244250796, "lat": 10.194444, "lon": 34.338056}, {"type": "node", "id": 244250797, "lat": 10.2, "lon": 34.336667}, {"type": "node", "id": 244250798, "lat": 10.117222, "lon": 34.323056}, {"type": "node", "id": 244250799, "lat": 10.134444, "lon": 34.322778}, {"type": "node", "id": 244250800, "lat": 10.0975, "lon": 34.3025}, {"type": "node", "id": 244250801, "lat": 10.114444, "lon": 34.320278}, {"type": "node", "id": 244250802, "lat": 10.168056, "lon": 34.324167}, {"type": "node", "id": 244250803, "lat": 10.170556, "lon": 34.326944}, {"type": "node", "id": 244250804, "lat": 10.151389, "lon": 34.3225}, {"type": "node", "id": 244250805, "lat": 10.163889, "lon": 34.321389}, {"type": "node", "id": 244250806, "lat": 10.35, "lon": 34.328056}, {"type": "node", "id": 244250807, "lat": 10.332778, "lon": 34.331111}, {"type": "node", "id": 244250808, "lat": 10.384444, "lon": 34.320833}, {"type": "node", "id": 244250809, "lat": 10.367222, "lon": 34.324167}, {"type": "node", "id": 244250810, "lat": 10.280833, "lon": 34.341944}, {"type": "node", "id": 244250811, "lat": 10.263611, "lon": 34.345}, {"type": "node", "id": 244250812, "lat": 10.315278, "lon": 34.335}, {"type": "node", "id": 244250813, "lat": 10.298333, "lon": 34.338056}, {"type": "node", "id": 244250814, "lat": 10.238333, "lon": 34.348611}, {"type": "node", "id": 244250815, "lat": 10.231944, "lon": 34.347778}, {"type": "node", "id": 244250816, "lat": 10.246389, "lon": 34.348056}, {"type": "node", "id": 244250817, "lat": 10.245, "lon": 34.348889}, {"type": "node", "id": 244250818, "lat": 10.219167, "lon": 34.34}, {"type": "node", "id": 244250819, "lat": 10.215833, "lon": 34.336389}, {"type": "node", "id": 244250820, "lat": 10.227222, "lon": 34.345556}, {"type": "node", "id": 244250821, "lat": 10.223056, "lon": 34.342778}, {"type": "node", "id": 244250822, "lat": 10.5642128, "lon": 34.2956908}, {"type": "node", "id": 244250823, "lat": 10.5692223, "lon": 34.2960913}, {"type": "node", "id": 244250824, "lat": 10.571667, "lon": 34.301667}, {"type": "node", "id": 244250825, "lat": 10.575556, "lon": 34.304722}, {"type": "node", "id": 244250826, "lat": 10.5364021, "lon": 34.2833347}, {"type": "node", "id": 244250827, "lat": 10.5526157, "lon": 34.2905603}, {"type": "node", "id": 244250828, "lat": 10.5551818, "lon": 34.2927468}, {"type": "node", "id": 244250829, "lat": 10.5607629, "lon": 34.2945528}, {"type": "node", "id": 244250830, "lat": 10.470556, "lon": 34.303333}, {"type": "node", "id": 244250831, "lat": 10.487778, "lon": 34.3}, {"type": "node", "id": 244250832, "lat": 10.505, "lon": 34.296111}, {"type": "node", "id": 244250833, "lat": 10.522222, "lon": 34.293056}, {"type": "node", "id": 244250834, "lat": 10.401667, "lon": 34.317222}, {"type": "node", "id": 244250835, "lat": 10.418889, "lon": 34.313889}, {"type": "node", "id": 244250836, "lat": 10.436111, "lon": 34.310278}, {"type": "node", "id": 244250837, "lat": 10.453333, "lon": 34.306944}, {"type": "node", "id": 244250838, "lat": 10.635833, "lon": 34.355556}, {"type": "node", "id": 244250839, "lat": 10.631667, "lon": 34.352778}, {"type": "node", "id": 244250840, "lat": 10.627778, "lon": 34.349722}, {"type": "node", "id": 244250841, "lat": 10.624444, "lon": 34.346111}, {"type": "node", "id": 244250842, "lat": 10.620278, "lon": 34.343333}, {"type": "node", "id": 244250843, "lat": 10.616944, "lon": 34.339722}, {"type": "node", "id": 244250844, "lat": 10.612778, "lon": 34.336944}, {"type": "node", "id": 244250845, "lat": 10.609444, "lon": 34.333333}, {"type": "node", "id": 244250846, "lat": 10.606111, "lon": 34.329722}, {"type": "node", "id": 244250847, "lat": 10.601944, "lon": 34.326944}, {"type": "node", "id": 244250848, "lat": 10.598611, "lon": 34.323333}, {"type": "node", "id": 244250849, "lat": 10.594722, "lon": 34.320556}, {"type": "node", "id": 244250850, "lat": 10.590556, "lon": 34.3175}, {"type": "node", "id": 244250851, "lat": 10.586389, "lon": 34.314722}, {"type": "node", "id": 244250852, "lat": 10.583056, "lon": 34.311111}, {"type": "node", "id": 244250853, "lat": 10.579167, "lon": 34.308333}, {"type": "node", "id": 244250854, "lat": 10.843056, "lon": 34.528333}, {"type": "node", "id": 244250855, "lat": 10.855278, "lon": 34.546111}, {"type": "node", "id": 244250856, "lat": 10.82, "lon": 34.493056}, {"type": "node", "id": 244250857, "lat": 10.831944, "lon": 34.510833}, {"type": "node", "id": 244250858, "lat": 10.795833, "lon": 34.4575}, {"type": "node", "id": 244250859, "lat": 10.807778, "lon": 34.475278}, {"type": "node", "id": 244250860, "lat": 10.774444, "lon": 34.433889}, {"type": "node", "id": 244250861, "lat": 10.784444, "lon": 34.439722}, {"type": "node", "id": 244250862, "lat": 10.740556, "lon": 34.414444}, {"type": "node", "id": 244250863, "lat": 10.7575, "lon": 34.423889}, {"type": "node", "id": 244250864, "lat": 10.706389, "lon": 34.395556}, {"type": "node", "id": 244250865, "lat": 10.723333, "lon": 34.405}, {"type": "node", "id": 244250866, "lat": 10.6725, "lon": 34.375833}, {"type": "node", "id": 244250867, "lat": 10.689444, "lon": 34.385278}, {"type": "node", "id": 244250868, "lat": 10.638611, "lon": 34.356944}, {"type": "node", "id": 244250869, "lat": 10.655556, "lon": 34.366389}, {"type": "node", "id": 244250870, "lat": 12.675556, "lon": 35.7525}, {"type": "node", "id": 244250871, "lat": 12.6725, "lon": 35.734722}, {"type": "node", "id": 244250872, "lat": 12.668889, "lon": 35.717222}, {"type": "node", "id": 244250873, "lat": 11.2324149, "lon": 34.9697302}, {"type": "node", "id": 244250874, "lat": 12.665833, "lon": 35.699444}, {"type": "node", "id": 244250876, "lat": 12.688889, "lon": 35.823333}, {"type": "node", "id": 244250878, "lat": 12.685833, "lon": 35.805556}, {"type": "node", "id": 244250880, "lat": 12.682222, "lon": 35.787778}, {"type": "node", "id": 244250882, "lat": 12.679167, "lon": 35.770278}, {"type": "node", "id": 244250884, "lat": 12.702222, "lon": 35.893889}, {"type": "node", "id": 244250886, "lat": 12.699167, "lon": 35.876389}, {"type": "node", "id": 244250888, "lat": 12.695556, "lon": 35.858611}, {"type": "node", "id": 244250890, "lat": 12.6925, "lon": 35.840833}, {"type": "node", "id": 244250892, "lat": 12.715556, "lon": 35.964722}, {"type": "node", "id": 244250894, "lat": 12.7125, "lon": 35.946944}, {"type": "node", "id": 244250896, "lat": 12.708889, "lon": 35.929444}, {"type": "node", "id": 244250898, "lat": 12.705833, "lon": 35.911667}, {"type": "node", "id": 244250899, "lat": 11.2944861, "lon": 34.9752995}, {"type": "node", "id": 244250900, "lat": 12.595, "lon": 35.678056}, {"type": "node", "id": 244250901, "lat": 11.304167, "lon": 34.979722}, {"type": "node", "id": 244250902, "lat": 12.5975, "lon": 35.682222}, {"type": "node", "id": 244250903, "lat": 11.299167, "lon": 34.9775}, {"type": "node", "id": 244250904, "lat": 12.588889, "lon": 35.645556}, {"type": "node", "id": 244250905, "lat": 11.313611, "lon": 34.984167}, {"type": "node", "id": 244250906, "lat": 12.594167, "lon": 35.649167}, {"type": "node", "id": 244250907, "lat": 11.308889, "lon": 34.981944}, {"type": "node", "id": 244250908, "lat": 12.608333, "lon": 35.692222}, {"type": "node", "id": 244250909, "lat": 11.3225, "lon": 34.989167}, {"type": "node", "id": 244250910, "lat": 12.612222, "lon": 35.695278}, {"type": "node", "id": 244250911, "lat": 11.318333, "lon": 34.986389}, {"type": "node", "id": 244250912, "lat": 12.600833, "lon": 35.685833}, {"type": "node", "id": 244250913, "lat": 11.331111, "lon": 34.994444}, {"type": "node", "id": 244250914, "lat": 12.604167, "lon": 35.689444}, {"type": "node", "id": 244250915, "lat": 11.327222, "lon": 34.991389}, {"type": "node", "id": 244250916, "lat": 12.628056, "lon": 35.700556}, {"type": "node", "id": 244250917, "lat": 11.34, "lon": 34.999444}, {"type": "node", "id": 244250918, "lat": 12.634722, "lon": 35.700833}, {"type": "node", "id": 244250919, "lat": 11.335833, "lon": 34.996667}, {"type": "node", "id": 244250920, "lat": 12.616944, "lon": 35.6975}, {"type": "node", "id": 244250921, "lat": 11.348889, "lon": 35.004444}, {"type": "node", "id": 244250922, "lat": 12.621944, "lon": 35.699722}, {"type": "node", "id": 244250923, "lat": 11.344722, "lon": 35.001667}, {"type": "node", "id": 244250924, "lat": 12.654722, "lon": 35.700556}, {"type": "node", "id": 244250925, "lat": 11.358333, "lon": 35.008889}, {"type": "node", "id": 244250926, "lat": 12.660833, "lon": 35.7}, {"type": "node", "id": 244250927, "lat": 11.353611, "lon": 35.006667}, {"type": "node", "id": 244250928, "lat": 12.641111, "lon": 35.700278}, {"type": "node", "id": 244250929, "lat": 11.367778, "lon": 35.013333}, {"type": "node", "id": 244250930, "lat": 12.648056, "lon": 35.700278}, {"type": "node", "id": 244250931, "lat": 11.363056, "lon": 35.011111}, {"type": "node", "id": 244250932, "lat": 12.72, "lon": 36.084444}, {"type": "node", "id": 244250933, "lat": 11.382778, "lon": 35.019444}, {"type": "node", "id": 244250934, "lat": 12.723611, "lon": 36.081111}, {"type": "node", "id": 244250935, "lat": 11.387778, "lon": 35.021667}, {"type": "node", "id": 244250936, "lat": 12.711667, "lon": 36.089722}, {"type": "node", "id": 244250937, "lat": 11.373333, "lon": 35.015}, {"type": "node", "id": 244250938, "lat": 12.716667, "lon": 36.087778}, {"type": "node", "id": 244250939, "lat": 11.378056, "lon": 35.017222}, {"type": "node", "id": 244250940, "lat": 12.702778, "lon": 36.095278}, {"type": "node", "id": 244250941, "lat": 11.4025, "lon": 35.0275}, {"type": "node", "id": 244250942, "lat": 12.706944, "lon": 36.091944}, {"type": "node", "id": 244250943, "lat": 11.4075, "lon": 35.029722}, {"type": "node", "id": 244250944, "lat": 12.696389, "lon": 36.102778}, {"type": "node", "id": 244250945, "lat": 11.3925, "lon": 35.023889}, {"type": "node", "id": 244250946, "lat": 12.699167, "lon": 36.098611}, {"type": "node", "id": 244250947, "lat": 11.397778, "lon": 35.025278}, {"type": "node", "id": 244250948, "lat": 12.693889, "lon": 36.110556}, {"type": "node", "id": 244250949, "lat": 11.421667, "lon": 35.036389}, {"type": "node", "id": 244250950, "lat": 12.694167, "lon": 36.107778}, {"type": "node", "id": 244250951, "lat": 11.426389, "lon": 35.038611}, {"type": "node", "id": 244250952, "lat": 12.695833, "lon": 36.121111}, {"type": "node", "id": 244250953, "lat": 11.412222, "lon": 35.031944}, {"type": "node", "id": 244250954, "lat": 12.693889, "lon": 36.116111}, {"type": "node", "id": 244250955, "lat": 11.416944, "lon": 35.034167}, {"type": "node", "id": 244250956, "lat": 12.700278, "lon": 36.130278}, {"type": "node", "id": 244250957, "lat": 11.440833, "lon": 35.045278}, {"type": "node", "id": 244250958, "lat": 12.697778, "lon": 36.126111}, {"type": "node", "id": 244250959, "lat": 11.445556, "lon": 35.0475}, {"type": "node", "id": 244250960, "lat": 12.704167, "lon": 36.140278}, {"type": "node", "id": 244250961, "lat": 11.431111, "lon": 35.040833}, {"type": "node", "id": 244250962, "lat": 12.702222, "lon": 36.135278}, {"type": "node", "id": 244250963, "lat": 11.435833, "lon": 35.043056}, {"type": "node", "id": 244250964, "lat": 12.719167, "lon": 35.982222}, {"type": "node", "id": 244250965, "lat": 11.463056, "lon": 35.055}, {"type": "node", "id": 244250966, "lat": 12.723056, "lon": 36.0}, {"type": "node", "id": 244250967, "lat": 11.458333, "lon": 35.052778}, {"type": "node", "id": 244250968, "lat": 12.724167, "lon": 36.006389}, {"type": "node", "id": 244250969, "lat": 11.453611, "lon": 35.050556}, {"type": "node", "id": 244250970, "lat": 12.721944, "lon": 36.01}, {"type": "node", "id": 244250971, "lat": 11.450833, "lon": 35.048889}, {"type": "node", "id": 244250972, "lat": 12.719167, "lon": 36.014167}, {"type": "node", "id": 244250973, "lat": 11.482778, "lon": 35.063056}, {"type": "node", "id": 244250974, "lat": 12.716944, "lon": 36.018889}, {"type": "node", "id": 244250975, "lat": 11.478056, "lon": 35.060833}, {"type": "node", "id": 244250976, "lat": 12.715556, "lon": 36.024444}, {"type": "node", "id": 244250977, "lat": 11.473333, "lon": 35.058611}, {"type": "node", "id": 244250978, "lat": 12.714444, "lon": 36.030833}, {"type": "node", "id": 244250979, "lat": 11.468611, "lon": 35.056389}, {"type": "node", "id": 244250980, "lat": 12.715, "lon": 36.037222}, {"type": "node", "id": 244250981, "lat": 11.5025, "lon": 35.071111}, {"type": "node", "id": 244250982, "lat": 12.715556, "lon": 36.043611}, {"type": "node", "id": 244250983, "lat": 11.497222, "lon": 35.069722}, {"type": "node", "id": 244250984, "lat": 12.7175, "lon": 36.048611}, {"type": "node", "id": 244250985, "lat": 11.493056, "lon": 35.066667}, {"type": "node", "id": 244250986, "lat": 12.719444, "lon": 36.053333}, {"type": "node", "id": 244250987, "lat": 11.488333, "lon": 35.064444}, {"type": "node", "id": 244250988, "lat": 12.721389, "lon": 36.058333}, {"type": "node", "id": 244250989, "lat": 11.521111, "lon": 35.080833}, {"type": "node", "id": 244250990, "lat": 12.723333, "lon": 36.063333}, {"type": "node", "id": 244250991, "lat": 11.516111, "lon": 35.078611}, {"type": "node", "id": 244250992, "lat": 12.724444, "lon": 36.069167}, {"type": "node", "id": 244250993, "lat": 11.512222, "lon": 35.075556}, {"type": "node", "id": 244250994, "lat": 12.725, "lon": 36.075556}, {"type": "node", "id": 244250995, "lat": 11.5075, "lon": 35.073333}, {"type": "node", "id": 244250996, "lat": 11.546944, "lon": 35.090556}, {"type": "node", "id": 244250997, "lat": 11.552222, "lon": 35.091944}, {"type": "node", "id": 244250998, "lat": 11.557778, "lon": 35.093611}, {"type": "node", "id": 244250999, "lat": 11.563889, "lon": 35.094444}, {"type": "node", "id": 244251000, "lat": 11.525833, "lon": 35.083056}, {"type": "node", "id": 244251001, "lat": 11.531111, "lon": 35.085278}, {"type": "node", "id": 244251002, "lat": 11.535833, "lon": 35.0875}, {"type": "node", "id": 244251003, "lat": 11.541389, "lon": 35.088889}, {"type": "node", "id": 244251004, "lat": 11.593611, "lon": 35.093056}, {"type": "node", "id": 244251005, "lat": 11.598889, "lon": 35.091667}, {"type": "node", "id": 244251006, "lat": 11.603333, "lon": 35.088889}, {"type": "node", "id": 244251007, "lat": 11.608056, "lon": 35.086944}, {"type": "node", "id": 244251008, "lat": 11.57, "lon": 35.095278}, {"type": "node", "id": 244251009, "lat": 11.576389, "lon": 35.096111}, {"type": "node", "id": 244251010, "lat": 11.583056, "lon": 35.096111}, {"type": "node", "id": 244251011, "lat": 11.588611, "lon": 35.095}, {"type": "node", "id": 244251012, "lat": 11.634444, "lon": 35.072222}, {"type": "node", "id": 244251013, "lat": 11.629722, "lon": 35.074167}, {"type": "node", "id": 244251014, "lat": 11.643611, "lon": 35.0675}, {"type": "node", "id": 244251015, "lat": 11.638611, "lon": 35.069444}, {"type": "node", "id": 244251016, "lat": 11.617222, "lon": 35.082222}, {"type": "node", "id": 244251017, "lat": 11.612222, "lon": 35.084167}, {"type": "node", "id": 244251019, "lat": 11.625556, "lon": 35.076944}, {"type": "node", "id": 244251020, "lat": 11.621111, "lon": 35.079722}, {"type": "node", "id": 244251021, "lat": 11.677778, "lon": 35.0675}, {"type": "node", "id": 244251022, "lat": 11.6725, "lon": 35.066111}, {"type": "node", "id": 244251023, "lat": 11.689444, "lon": 35.068611}, {"type": "node", "id": 244251024, "lat": 11.683333, "lon": 35.069167}, {"type": "node", "id": 244251025, "lat": 11.654444, "lon": 35.064167}, {"type": "node", "id": 244251026, "lat": 11.649167, "lon": 35.065556}, {"type": "node", "id": 244251027, "lat": 11.666944, "lon": 35.064444}, {"type": "node", "id": 244251028, "lat": 11.660833, "lon": 35.063611}, {"type": "node", "id": 244251029, "lat": 11.7275, "lon": 35.058333}, {"type": "node", "id": 244251030, "lat": 11.733056, "lon": 35.058333}, {"type": "node", "id": 244251031, "lat": 11.714444, "lon": 35.058611}, {"type": "node", "id": 244251032, "lat": 11.720556, "lon": 35.058056}, {"type": "node", "id": 244251033, "lat": 11.704167, "lon": 35.061944}, {"type": "node", "id": 244251034, "lat": 11.708889, "lon": 35.06}, {"type": "node", "id": 244251035, "lat": 11.694444, "lon": 35.066667}, {"type": "node", "id": 244251036, "lat": 11.699167, "lon": 35.064722}, {"type": "node", "id": 244251037, "lat": 11.772778, "lon": 35.067778}, {"type": "node", "id": 244251038, "lat": 11.7775, "lon": 35.07}, {"type": "node", "id": 244251039, "lat": 11.7625, "lon": 35.063889}, {"type": "node", "id": 244251040, "lat": 11.767778, "lon": 35.065556}, {"type": "node", "id": 244251041, "lat": 11.751389, "lon": 35.060833}, {"type": "node", "id": 244251042, "lat": 11.756944, "lon": 35.0625}, {"type": "node", "id": 244251043, "lat": 11.74, "lon": 35.058611}, {"type": "node", "id": 244251044, "lat": 11.745278, "lon": 35.06}, {"type": "node", "id": 244251045, "lat": 11.814167, "lon": 35.088889}, {"type": "node", "id": 244251046, "lat": 11.81, "lon": 35.086111}, {"type": "node", "id": 244251047, "lat": 11.805278, "lon": 35.083889}, {"type": "node", "id": 244251048, "lat": 11.801111, "lon": 35.081111}, {"type": "node", "id": 244251049, "lat": 11.796389, "lon": 35.078889}, {"type": "node", "id": 244251050, "lat": 11.791667, "lon": 35.076667}, {"type": "node", "id": 244251051, "lat": 11.786944, "lon": 35.074444}, {"type": "node", "id": 244251052, "lat": 11.782222, "lon": 35.072222}, {"type": "node", "id": 244251053, "lat": 11.845833, "lon": 35.110833}, {"type": "node", "id": 244251054, "lat": 11.841944, "lon": 35.107778}, {"type": "node", "id": 244251055, "lat": 11.837778, "lon": 35.105}, {"type": "node", "id": 244251056, "lat": 11.833611, "lon": 35.102222}, {"type": "node", "id": 244251057, "lat": 11.829722, "lon": 35.099167}, {"type": "node", "id": 244251058, "lat": 11.826944, "lon": 35.096944}, {"type": "node", "id": 244251059, "lat": 11.822222, "lon": 35.094722}, {"type": "node", "id": 244251060, "lat": 11.818056, "lon": 35.091944}, {"type": "node", "id": 244251061, "lat": 11.8725, "lon": 35.153611}, {"type": "node", "id": 244251062, "lat": 11.869722, "lon": 35.149167}, {"type": "node", "id": 244251063, "lat": 11.876389, "lon": 35.163333}, {"type": "node", "id": 244251064, "lat": 11.874444, "lon": 35.158611}, {"type": "node", "id": 244251065, "lat": 11.879444, "lon": 35.174167}, {"type": "node", "id": 244251066, "lat": 11.878333, "lon": 35.168333}, {"type": "node", "id": 244251067, "lat": 11.882778, "lon": 35.184722}, {"type": "node", "id": 244251068, "lat": 11.881389, "lon": 35.179167}, {"type": "node", "id": 244251069, "lat": 11.8525, "lon": 35.118056}, {"type": "node", "id": 244251070, "lat": 11.849167, "lon": 35.114444}, {"type": "node", "id": 244251071, "lat": 11.858611, "lon": 35.125833}, {"type": "node", "id": 244251072, "lat": 11.855833, "lon": 35.121667}, {"type": "node", "id": 244251073, "lat": 11.863889, "lon": 35.134444}, {"type": "node", "id": 244251074, "lat": 11.861111, "lon": 35.13}, {"type": "node", "id": 244251075, "lat": 11.867778, "lon": 35.144444}, {"type": "node", "id": 244251076, "lat": 11.865833, "lon": 35.139444}, {"type": "node", "id": 244251077, "lat": 11.898056, "lon": 35.231389}, {"type": "node", "id": 244251078, "lat": 11.900833, "lon": 35.235556}, {"type": "node", "id": 244251079, "lat": 11.904167, "lon": 35.239167}, {"type": "node", "id": 244251080, "lat": 11.9075, "lon": 35.242778}, {"type": "node", "id": 244251081, "lat": 11.910833, "lon": 35.246389}, {"type": "node", "id": 244251082, "lat": 11.914167, "lon": 35.25}, {"type": "node", "id": 244251083, "lat": 11.9175, "lon": 35.253611}, {"type": "node", "id": 244251084, "lat": 11.921667, "lon": 35.256389}, {"type": "node", "id": 244251085, "lat": 11.883889, "lon": 35.190278}, {"type": "node", "id": 244251086, "lat": 11.885278, "lon": 35.195833}, {"type": "node", "id": 244251087, "lat": 11.886389, "lon": 35.201667}, {"type": "node", "id": 244251088, "lat": 11.888333, "lon": 35.206667}, {"type": "node", "id": 244251089, "lat": 11.889722, "lon": 35.212222}, {"type": "node", "id": 244251090, "lat": 11.891667, "lon": 35.217222}, {"type": "node", "id": 244251091, "lat": 11.893333, "lon": 35.222222}, {"type": "node", "id": 244251092, "lat": 11.895556, "lon": 35.227222}, {"type": "node", "id": 244251093, "lat": 11.975556, "lon": 35.271111}, {"type": "node", "id": 244251094, "lat": 11.97, "lon": 35.269722}, {"type": "node", "id": 244251095, "lat": 11.963056, "lon": 35.269444}, {"type": "node", "id": 244251096, "lat": 11.956944, "lon": 35.27}, {"type": "node", "id": 244251097, "lat": 11.986111, "lon": 35.288333}, {"type": "node", "id": 244251098, "lat": 11.983333, "lon": 35.283889}, {"type": "node", "id": 244251099, "lat": 11.981389, "lon": 35.278889}, {"type": "node", "id": 244251100, "lat": 11.978889, "lon": 35.274722}, {"type": "node", "id": 244251101, "lat": 11.933611, "lon": 35.265833}, {"type": "node", "id": 244251102, "lat": 11.933611, "lon": 35.265278}, {"type": "node", "id": 244251103, "lat": 11.929722, "lon": 35.262222}, {"type": "node", "id": 244251104, "lat": 11.925556, "lon": 35.259444}, {"type": "node", "id": 244251105, "lat": 11.950833, "lon": 35.270556}, {"type": "node", "id": 244251106, "lat": 11.944722, "lon": 35.269722}, {"type": "node", "id": 244251107, "lat": 11.938333, "lon": 35.268889}, {"type": "node", "id": 244251108, "lat": 11.9357945, "lon": 35.2676884}, {"type": "node", "id": 244251109, "lat": 12.018056, "lon": 35.3325}, {"type": "node", "id": 244251110, "lat": 12.021389, "lon": 35.336111}, {"type": "node", "id": 244251111, "lat": 12.011389, "lon": 35.325278}, {"type": "node", "id": 244251112, "lat": 12.014722, "lon": 35.328889}, {"type": "node", "id": 244251113, "lat": 12.032778, "lon": 35.345556}, {"type": "node", "id": 244251114, "lat": 12.038333, "lon": 35.347222}, {"type": "node", "id": 244251115, "lat": 12.024722, "lon": 35.339722}, {"type": "node", "id": 244251116, "lat": 12.028889, "lon": 35.3425}, {"type": "node", "id": 244251117, "lat": 11.993889, "lon": 35.301111}, {"type": "node", "id": 244251118, "lat": 11.996667, "lon": 35.305278}, {"type": "node", "id": 244251119, "lat": 11.988611, "lon": 35.2925}, {"type": "node", "id": 244251120, "lat": 11.991389, "lon": 35.296667}, {"type": "node", "id": 244251121, "lat": 12.005278, "lon": 35.3175}, {"type": "node", "id": 244251122, "lat": 12.008056, "lon": 35.321667}, {"type": "node", "id": 244251123, "lat": 11.999444, "lon": 35.309722}, {"type": "node", "id": 244251124, "lat": 12.001944, "lon": 35.313889}, {"type": "node", "id": 244251125, "lat": 12.1175, "lon": 35.361667}, {"type": "node", "id": 244251126, "lat": 12.112778, "lon": 35.359444}, {"type": "node", "id": 244251127, "lat": 12.127778, "lon": 35.365556}, {"type": "node", "id": 244251128, "lat": 12.123056, "lon": 35.363056}, {"type": "node", "id": 244251129, "lat": 12.098611, "lon": 35.352778}, {"type": "node", "id": 244251130, "lat": 12.093889, "lon": 35.350556}, {"type": "node", "id": 244251131, "lat": 12.108889, "lon": 35.356389}, {"type": "node", "id": 244251132, "lat": 12.103333, "lon": 35.355}, {"type": "node", "id": 244251133, "lat": 12.0775, "lon": 35.345833}, {"type": "node", "id": 244251134, "lat": 12.070556, "lon": 35.345833}, {"type": "node", "id": 244251135, "lat": 12.088333, "lon": 35.348889}, {"type": "node", "id": 244251136, "lat": 12.083611, "lon": 35.346667}, {"type": "node", "id": 244251137, "lat": 12.051944, "lon": 35.3475}, {"type": "node", "id": 244251138, "lat": 12.045278, "lon": 35.347222}, {"type": "node", "id": 244251139, "lat": 12.064444, "lon": 35.346389}, {"type": "node", "id": 244251140, "lat": 12.058333, "lon": 35.346944}, {"type": "node", "id": 244251141, "lat": 12.176944, "lon": 35.406667}, {"type": "node", "id": 244251142, "lat": 12.178889, "lon": 35.411667}, {"type": "node", "id": 244251143, "lat": 12.181667, "lon": 35.415833}, {"type": "node", "id": 244251144, "lat": 12.185, "lon": 35.419444}, {"type": "node", "id": 244251145, "lat": 12.17, "lon": 35.386111}, {"type": "node", "id": 244251146, "lat": 12.171944, "lon": 35.391111}, {"type": "node", "id": 244251147, "lat": 12.173889, "lon": 35.396111}, {"type": "node", "id": 244251148, "lat": 12.175, "lon": 35.401667}, {"type": "node", "id": 244251149, "lat": 12.151667, "lon": 35.376667}, {"type": "node", "id": 244251150, "lat": 12.156389, "lon": 35.378889}, {"type": "node", "id": 244251151, "lat": 12.161111, "lon": 35.381111}, {"type": "node", "id": 244251152, "lat": 12.165278, "lon": 35.383889}, {"type": "node", "id": 244251153, "lat": 12.1325, "lon": 35.367778}, {"type": "node", "id": 244251154, "lat": 12.137222, "lon": 35.37}, {"type": "node", "id": 244251155, "lat": 12.142222, "lon": 35.372222}, {"type": "node", "id": 244251156, "lat": 12.146944, "lon": 35.374444}, {"type": "node", "id": 244251157, "lat": 12.301111, "lon": 35.468889}, {"type": "node", "id": 244251158, "lat": 12.284167, "lon": 35.458611}, {"type": "node", "id": 244251159, "lat": 12.2675, "lon": 35.448333}, {"type": "node", "id": 244251160, "lat": 12.250556, "lon": 35.438056}, {"type": "node", "id": 244251161, "lat": 12.249722, "lon": 35.438056}, {"type": "node", "id": 244251162, "lat": 12.242778, "lon": 35.437778}, {"type": "node", "id": 244251163, "lat": 12.236111, "lon": 35.4375}, {"type": "node", "id": 244251164, "lat": 12.229722, "lon": 35.438056}, {"type": "node", "id": 244251165, "lat": 12.223056, "lon": 35.438056}, {"type": "node", "id": 244251166, "lat": 12.216111, "lon": 35.437778}, {"type": "node", "id": 244251167, "lat": 12.21, "lon": 35.436944}, {"type": "node", "id": 244251168, "lat": 12.205278, "lon": 35.434722}, {"type": "node", "id": 244251169, "lat": 12.200556, "lon": 35.4325}, {"type": "node", "id": 244251170, "lat": 12.196389, "lon": 35.429722}, {"type": "node", "id": 244251171, "lat": 12.193056, "lon": 35.426111}, {"type": "node", "id": 244251172, "lat": 12.188889, "lon": 35.423056}, {"type": "node", "id": 244251173, "lat": 12.555, "lon": 35.625}, {"type": "node", "id": 244251174, "lat": 12.571944, "lon": 35.635278}, {"type": "node", "id": 244251175, "lat": 12.521111, "lon": 35.603611}, {"type": "node", "id": 244251176, "lat": 12.538056, "lon": 35.613889}, {"type": "node", "id": 244251177, "lat": 12.487222, "lon": 35.583056}, {"type": "node", "id": 244251178, "lat": 12.509247, "lon": 35.596414}, {"type": "node", "id": 244251179, "lat": 12.453611, "lon": 35.5625}, {"type": "node", "id": 244251180, "lat": 12.470556, "lon": 35.572778}, {"type": "node", "id": 244251181, "lat": 12.419722, "lon": 35.541389}, {"type": "node", "id": 244251182, "lat": 12.436667, "lon": 35.551667}, {"type": "node", "id": 244251183, "lat": 12.385833, "lon": 35.520833}, {"type": "node", "id": 244251184, "lat": 12.402778, "lon": 35.531111}, {"type": "node", "id": 244251185, "lat": 12.351944, "lon": 35.500278}, {"type": "node", "id": 244251186, "lat": 12.368889, "lon": 35.510556}, {"type": "node", "id": 244251187, "lat": 12.318056, "lon": 35.478889}, {"type": "node", "id": 244251188, "lat": 12.335, "lon": 35.489167}, {"type": "node", "id": 244251189, "lat": 14.211944, "lon": 36.528611}, {"type": "node", "id": 244251190, "lat": 12.707574, "lon": 36.1424724}, {"type": "node", "id": 244251191, "lat": 14.195, "lon": 36.523056}, {"type": "node", "id": 244251192, "lat": 12.724167, "lon": 36.143611}, {"type": "node", "id": 244251194, "lat": 12.741111, "lon": 36.146389}, {"type": "node", "id": 244251196, "lat": 12.758333, "lon": 36.148889}, {"type": "node", "id": 244251198, "lat": 12.775278, "lon": 36.150833}, {"type": "node", "id": 244251199, "lat": 14.257558, "lon": 36.5602137}, {"type": "node", "id": 244251200, "lat": 12.7925, "lon": 36.153333}, {"type": "node", "id": 244251202, "lat": 12.809722, "lon": 36.155833}, {"type": "node", "id": 244251204, "lat": 14.076111, "lon": 36.484444}, {"type": "node", "id": 244251205, "lat": 12.826667, "lon": 36.158333}, {"type": "node", "id": 244251206, "lat": 14.058889, "lon": 36.478889}, {"type": "node", "id": 244251207, "lat": 12.843889, "lon": 36.160278}, {"type": "node", "id": 244251208, "lat": 14.11, "lon": 36.495278}, {"type": "node", "id": 244251209, "lat": 12.860833, "lon": 36.162778}, {"type": "node", "id": 244251210, "lat": 14.093056, "lon": 36.489722}, {"type": "node", "id": 244251211, "lat": 12.875278, "lon": 36.165278}, {"type": "node", "id": 244251212, "lat": 14.143889, "lon": 36.506944}, {"type": "node", "id": 244251213, "lat": 12.878056, "lon": 36.163333}, {"type": "node", "id": 244251214, "lat": 14.126944, "lon": 36.501389}, {"type": "node", "id": 244251215, "lat": 12.880833, "lon": 36.159167}, {"type": "node", "id": 244251216, "lat": 14.178056, "lon": 36.517778}, {"type": "node", "id": 244251217, "lat": 12.884444, "lon": 36.155833}, {"type": "node", "id": 244251218, "lat": 14.161111, "lon": 36.512222}, {"type": "node", "id": 244251219, "lat": 12.888056, "lon": 36.152222}, {"type": "node", "id": 244251220, "lat": 12.895556, "lon": 36.146111}, {"type": "node", "id": 244251222, "lat": 12.891389, "lon": 36.148889}, {"type": "node", "id": 244251224, "lat": 12.903889, "lon": 36.140833}, {"type": "node", "id": 244251226, "lat": 12.899722, "lon": 36.143611}, {"type": "node", "id": 244251228, "lat": 12.913056, "lon": 36.136111}, {"type": "node", "id": 244251230, "lat": 12.908333, "lon": 36.138056}, {"type": "node", "id": 244251232, "lat": 12.923333, "lon": 36.132778}, {"type": "node", "id": 244251234, "lat": 12.918056, "lon": 36.134167}, {"type": "node", "id": 244251269, "lat": 13.0090298, "lon": 36.1612734}, {"type": "node", "id": 244251271, "lat": 13.014722, "lon": 36.159167}, {"type": "node", "id": 244251277, "lat": 13.024444, "lon": 36.155278}, {"type": "node", "id": 244251279, "lat": 13.041667, "lon": 36.159444}, {"type": "node", "id": 244251281, "lat": 13.019722, "lon": 36.157222}, {"type": "node", "id": 244251283, "lat": 13.025278, "lon": 36.156111}, {"type": "node", "id": 244251284, "lat": 13.109722, "lon": 36.178056}, {"type": "node", "id": 244251286, "lat": 13.0925, "lon": 36.173333}, {"type": "node", "id": 244251288, "lat": 13.075556, "lon": 36.168611}, {"type": "node", "id": 244251290, "lat": 13.058611, "lon": 36.163889}, {"type": "node", "id": 244251292, "lat": 13.177778, "lon": 36.196944}, {"type": "node", "id": 244251294, "lat": 13.160833, "lon": 36.192222}, {"type": "node", "id": 244251296, "lat": 13.143889, "lon": 36.1875}, {"type": "node", "id": 244251298, "lat": 13.126667, "lon": 36.182778}, {"type": "node", "id": 244251301, "lat": 13.246111, "lon": 36.215}, {"type": "node", "id": 244251303, "lat": 13.228889, "lon": 36.210278}, {"type": "node", "id": 244251305, "lat": 13.211944, "lon": 36.205556}, {"type": "node", "id": 244251307, "lat": 13.195, "lon": 36.201667}, {"type": "node", "id": 244251309, "lat": 13.314167, "lon": 36.233611}, {"type": "node", "id": 244251311, "lat": 13.297222, "lon": 36.228889}, {"type": "node", "id": 244251313, "lat": 13.28, "lon": 36.224444}, {"type": "node", "id": 244251315, "lat": 13.263056, "lon": 36.219722}, {"type": "node", "id": 244251316, "lat": 13.384722, "lon": 36.261111}, {"type": "node", "id": 244251317, "lat": 13.401667, "lon": 36.273611}, {"type": "node", "id": 244251318, "lat": 13.418611, "lon": 36.285833}, {"type": "node", "id": 244251319, "lat": 13.435278, "lon": 36.298333}, {"type": "node", "id": 244251320, "lat": 13.331111, "lon": 36.238333}, {"type": "node", "id": 244251321, "lat": 13.348333, "lon": 36.243056}, {"type": "node", "id": 244251322, "lat": 13.365278, "lon": 36.247778}, {"type": "node", "id": 244251323, "lat": 13.368056, "lon": 36.248611}, {"type": "node", "id": 244251324, "lat": 13.519444, "lon": 36.362222}, {"type": "node", "id": 244251325, "lat": 13.536389, "lon": 36.374722}, {"type": "node", "id": 244251326, "lat": 13.549722, "lon": 36.384722}, {"type": "node", "id": 244251327, "lat": 13.5525, "lon": 36.386389}, {"type": "node", "id": 244251328, "lat": 13.452222, "lon": 36.311667}, {"type": "node", "id": 244251329, "lat": 13.468889, "lon": 36.324167}, {"type": "node", "id": 244251331, "lat": 13.485833, "lon": 36.336389}, {"type": "node", "id": 244251332, "lat": 13.502778, "lon": 36.348889}, {"type": "node", "id": 244251333, "lat": 13.5775, "lon": 36.401944}, {"type": "node", "id": 244251334, "lat": 13.572778, "lon": 36.399722}, {"type": "node", "id": 244251335, "lat": 13.586944, "lon": 36.406389}, {"type": "node", "id": 244251336, "lat": 13.582222, "lon": 36.404167}, {"type": "node", "id": 244251337, "lat": 13.559722, "lon": 36.391389}, {"type": "node", "id": 244251338, "lat": 13.555833, "lon": 36.388611}, {"type": "node", "id": 244251339, "lat": 13.567778, "lon": 36.3975}, {"type": "node", "id": 244251340, "lat": 13.563889, "lon": 36.394444}, {"type": "node", "id": 244251341, "lat": 13.621667, "lon": 36.410833}, {"type": "node", "id": 244251342, "lat": 13.615556, "lon": 36.411389}, {"type": "node", "id": 244251343, "lat": 13.632222, "lon": 36.4075}, {"type": "node", "id": 244251344, "lat": 13.626667, "lon": 36.408889}, {"type": "node", "id": 244251345, "lat": 13.597778, "lon": 36.409444}, {"type": "node", "id": 244251346, "lat": 13.592222, "lon": 36.408056}, {"type": "node", "id": 244251347, "lat": 13.609444, "lon": 36.411944}, {"type": "node", "id": 244251348, "lat": 13.603333, "lon": 36.411111}, {"type": "node", "id": 244251349, "lat": 13.6725, "lon": 36.415}, {"type": "node", "id": 244251350, "lat": 13.677222, "lon": 36.4175}, {"type": "node", "id": 244251351, "lat": 13.663056, "lon": 36.410556}, {"type": "node", "id": 244251352, "lat": 13.667778, "lon": 36.412778}, {"type": "node", "id": 244251353, "lat": 13.651944, "lon": 36.4075}, {"type": "node", "id": 244251354, "lat": 13.6575, "lon": 36.409167}, {"type": "node", "id": 244251355, "lat": 13.638333, "lon": 36.407222}, {"type": "node", "id": 244251356, "lat": 13.645278, "lon": 36.407222}, {"type": "node", "id": 244251358, "lat": 13.786944, "lon": 36.464167}, {"type": "node", "id": 244251359, "lat": 13.736111, "lon": 36.442222}, {"type": "node", "id": 244251360, "lat": 13.753056, "lon": 36.449167}, {"type": "node", "id": 244251361, "lat": 13.702222, "lon": 36.427222}, {"type": "node", "id": 244251362, "lat": 13.719167, "lon": 36.434722}, {"type": "node", "id": 244251363, "lat": 13.682778, "lon": 36.418889}, {"type": "node", "id": 244251364, "lat": 13.685278, "lon": 36.420556}, {"type": "node", "id": 244251365, "lat": 13.908611, "lon": 36.463333}, {"type": "node", "id": 244251366, "lat": 13.891111, "lon": 36.469167}, {"type": "node", "id": 244251367, "lat": 13.873889, "lon": 36.475278}, {"type": "node", "id": 244251368, "lat": 13.856667, "lon": 36.481111}, {"type": "node", "id": 244251369, "lat": 13.839444, "lon": 36.486944}, {"type": "node", "id": 244251370, "lat": 13.838056, "lon": 36.486111}, {"type": "node", "id": 244251371, "lat": 13.821111, "lon": 36.478611}, {"type": "node", "id": 244251372, "lat": 13.804167, "lon": 36.471111}, {"type": "node", "id": 244251373, "lat": 14.041944, "lon": 36.473611}, {"type": "node", "id": 244251374, "lat": 14.025, "lon": 36.468056}, {"type": "node", "id": 244251376, "lat": 13.991111, "lon": 36.457222}, {"type": "node", "id": 244251377, "lat": 13.973889, "lon": 36.451944}, {"type": "node", "id": 244251378, "lat": 13.956944, "lon": 36.446389}, {"type": "node", "id": 244251379, "lat": 13.943056, "lon": 36.451667}, {"type": "node", "id": 244251380, "lat": 13.925833, "lon": 36.4575}, {"type": "node", "id": 276887051, "lat": 10.0246045, "lon": 38.101632}, {"type": "node", "id": 276887052, "lat": 10.0246599, "lon": 38.1124413}, {"type": "node", "id": 276887053, "lat": 10.0194513, "lon": 38.1196779}, {"type": "node", "id": 276887054, "lat": 10.0220081, "lon": 38.1222099}, {"type": "node", "id": 276887055, "lat": 10.0424299, "lon": 38.1285989}, {"type": "node", "id": 276887056, "lat": 10.0524342, "lon": 38.1376648}, {"type": "node", "id": 276887057, "lat": 10.0456097, "lon": 38.1467199}, {"type": "node", "id": 276887058, "lat": 10.0406128, "lon": 38.157084}, {"type": "node", "id": 276887059, "lat": 10.0467401, "lon": 38.1599861}, {"type": "node", "id": 276887060, "lat": 10.0541509, "lon": 38.1733489}, {"type": "node", "id": 276887061, "lat": 10.067324, "lon": 38.178032}, {"type": "node", "id": 276887062, "lat": 10.0717396, "lon": 38.1878382}, {"type": "node", "id": 276887063, "lat": 10.0771058, "lon": 38.1934333}, {"type": "node", "id": 276887064, "lat": 10.0941704, "lon": 38.223356}, {"type": "node", "id": 276887065, "lat": 10.1017834, "lon": 38.2363245}, {"type": "node", "id": 276887066, "lat": 10.1069722, "lon": 38.2429737}, {"type": "node", "id": 276887067, "lat": 10.1041468, "lon": 38.2539815}, {"type": "node", "id": 276887068, "lat": 10.0939592, "lon": 38.2567978}, {"type": "node", "id": 276887069, "lat": 10.0909593, "lon": 38.2600808}, {"type": "node", "id": 276887070, "lat": 10.0936423, "lon": 38.2687175}, {"type": "node", "id": 276887071, "lat": 10.0967794, "lon": 38.2744574}, {"type": "node", "id": 276887073, "lat": 10.0971914, "lon": 38.2822466}, {"type": "node", "id": 276887074, "lat": 10.0949521, "lon": 38.2865703}, {"type": "node", "id": 276887075, "lat": 10.0950471, "lon": 38.3022237}, {"type": "node", "id": 276887076, "lat": 10.0969695, "lon": 38.3039617}, {"type": "node", "id": 276887077, "lat": 10.1128132, "lon": 38.3106458}, {"type": "node", "id": 276887078, "lat": 10.1129716, "lon": 38.3132422}, {"type": "node", "id": 276887079, "lat": 10.1133201, "lon": 38.3305371}, {"type": "node", "id": 276887080, "lat": 10.1159712, "lon": 38.332597}, {"type": "node", "id": 276887081, "lat": 10.1363131, "lon": 38.3287561}, {"type": "node", "id": 276887082, "lat": 10.1481733, "lon": 38.3352041}, {"type": "node", "id": 276887084, "lat": 10.1563474, "lon": 38.3360517}, {"type": "node", "id": 276887085, "lat": 10.1583962, "lon": 38.3380365}, {"type": "node", "id": 276887086, "lat": 10.165081, "lon": 38.3528316}, {"type": "node", "id": 276887087, "lat": 10.1643418, "lon": 38.354103}, {"type": "node", "id": 276887088, "lat": 10.1578417, "lon": 38.3598053}, {"type": "node", "id": 276887089, "lat": 10.1480677, "lon": 38.3615649}, {"type": "node", "id": 276887090, "lat": 10.1448149, "lon": 38.3705127}, {"type": "node", "id": 276887091, "lat": 10.1439806, "lon": 38.3769178}, {"type": "node", "id": 276887092, "lat": 10.1463462, "lon": 38.3831406}, {"type": "node", "id": 276887093, "lat": 10.1527039, "lon": 38.4039009}, {"type": "node", "id": 276887094, "lat": 10.162029, "lon": 38.4080261}, {"type": "node", "id": 276887095, "lat": 10.1815284, "lon": 38.4323323}, {"type": "node", "id": 276887096, "lat": 10.1871621, "lon": 38.4242749}, {"type": "node", "id": 276887097, "lat": 10.1892001, "lon": 38.4270322}, {"type": "node", "id": 276887098, "lat": 10.192595, "lon": 38.4329063}, {"type": "node", "id": 276887099, "lat": 10.1981229, "lon": 38.4332979}, {"type": "node", "id": 276887100, "lat": 10.2254756, "lon": 38.4239531}, {"type": "node", "id": 276887101, "lat": 10.2357541, "lon": 38.4347838}, {"type": "node", "id": 276887102, "lat": 10.2395286, "lon": 38.4392095}, {"type": "node", "id": 276887103, "lat": 10.242432, "lon": 38.445518}, {"type": "node", "id": 276887104, "lat": 10.2450081, "lon": 38.4486079}, {"type": "node", "id": 276887105, "lat": 10.2518759, "lon": 38.4590363}, {"type": "node", "id": 276887106, "lat": 10.2559352, "lon": 38.4598571}, {"type": "node", "id": 276887107, "lat": 10.2673582, "lon": 38.4579045}, {"type": "node", "id": 276887108, "lat": 10.2743521, "lon": 38.4685475}, {"type": "node", "id": 276887109, "lat": 10.2766852, "lon": 38.4673512}, {"type": "node", "id": 276887110, "lat": 10.2810134, "lon": 38.4615844}, {"type": "node", "id": 276887111, "lat": 10.2945202, "lon": 38.4618688}, {"type": "node", "id": 276887112, "lat": 10.2961406, "lon": 38.4645671}, {"type": "node", "id": 276887113, "lat": 10.2963412, "lon": 38.4738421}, {"type": "node", "id": 276887114, "lat": 10.2988641, "lon": 38.4756178}, {"type": "node", "id": 276887115, "lat": 10.3130035, "lon": 38.4695935}, {"type": "node", "id": 276887116, "lat": 10.3168852, "lon": 38.4723374}, {"type": "node", "id": 276887117, "lat": 10.3206614, "lon": 38.4787667}, {"type": "node", "id": 276887118, "lat": 10.3392117, "lon": 38.4778333}, {"type": "node", "id": 276887119, "lat": 10.3496975, "lon": 38.4854776}, {"type": "node", "id": 276887120, "lat": 10.3628901, "lon": 38.4784877}, {"type": "node", "id": 276887121, "lat": 10.3667739, "lon": 38.4788525}, {"type": "node", "id": 276887122, "lat": 10.3707948, "lon": 38.4862447}, {"type": "node", "id": 276887123, "lat": 10.3670905, "lon": 38.4918237}, {"type": "node", "id": 276887124, "lat": 10.3682198, "lon": 38.4961259}, {"type": "node", "id": 276887574, "lat": 9.9262846, "lon": 37.935276}, {"type": "node", "id": 276887576, "lat": 9.9410692, "lon": 37.9319823}, {"type": "node", "id": 276887578, "lat": 9.9470082, "lon": 37.9346859}, {"type": "node", "id": 276887580, "lat": 9.9489526, "lon": 37.9428828}, {"type": "node", "id": 276887582, "lat": 9.943077, "lon": 37.9551995}, {"type": "node", "id": 276887584, "lat": 9.9484031, "lon": 37.967087}, {"type": "node", "id": 276887586, "lat": 9.949946, "lon": 37.9702306}, {"type": "node", "id": 276887588, "lat": 9.956149, "lon": 37.9840386}, {"type": "node", "id": 276887590, "lat": 9.9563709, "lon": 37.987504}, {"type": "node", "id": 276887592, "lat": 9.9545534, "lon": 37.9910016}, {"type": "node", "id": 276887594, "lat": 9.9538559, "lon": 37.9969883}, {"type": "node", "id": 276887596, "lat": 9.9542997, "lon": 37.9983938}, {"type": "node", "id": 276887599, "lat": 9.9565823, "lon": 38.000164}, {"type": "node", "id": 276887601, "lat": 9.9643702, "lon": 38.0048633}, {"type": "node", "id": 276887603, "lat": 9.9712282, "lon": 38.0156994}, {"type": "node", "id": 276887605, "lat": 9.9733838, "lon": 38.018918}, {"type": "node", "id": 276887607, "lat": 9.9735, "lon": 38.028692}, {"type": "node", "id": 276887609, "lat": 9.9717142, "lon": 38.0375647}, {"type": "node", "id": 276887611, "lat": 9.9729611, "lon": 38.0439377}, {"type": "node", "id": 276887613, "lat": 9.9814144, "lon": 38.0473709}, {"type": "node", "id": 276887615, "lat": 9.9874372, "lon": 38.0509114}, {"type": "node", "id": 276887617, "lat": 9.9874477, "lon": 38.0521238}, {"type": "node", "id": 276887619, "lat": 9.9863383, "lon": 38.0619085}, {"type": "node", "id": 276887621, "lat": 9.9961542, "lon": 38.0634856}, {"type": "node", "id": 276887623, "lat": 10.0013843, "lon": 38.0640972}, {"type": "node", "id": 276887625, "lat": 10.0045435, "lon": 38.0659961}, {"type": "node", "id": 276887627, "lat": 10.0071004, "lon": 38.0709851}, {"type": "node", "id": 276887629, "lat": 10.0073381, "lon": 38.0780795}, {"type": "node", "id": 276887631, "lat": 10.0081596, "lon": 38.084262}, {"type": "node", "id": 276887633, "lat": 10.0142849, "lon": 38.084836}, {"type": "node", "id": 276887635, "lat": 10.016155, "lon": 38.083275}, {"type": "node", "id": 276887637, "lat": 10.0235453, "lon": 38.0847555}, {"type": "node", "id": 276887640, "lat": 10.0256002, "lon": 38.0918527}, {"type": "node", "id": 276887889, "lat": 9.8638627, "lon": 37.7786672}, {"type": "node", "id": 276887890, "lat": 9.8638098, "lon": 37.7846968}, {"type": "node", "id": 276887891, "lat": 9.8655539, "lon": 37.7886557}, {"type": "node", "id": 276887892, "lat": 9.8684924, "lon": 37.8027749}, {"type": "node", "id": 276887893, "lat": 9.8722342, "lon": 37.8114116}, {"type": "node", "id": 276887894, "lat": 9.8761186, "lon": 37.8235245}, {"type": "node", "id": 276887895, "lat": 9.8771518, "lon": 37.8235701}, {"type": "node", "id": 276887896, "lat": 9.8855785, "lon": 37.8298652}, {"type": "node", "id": 276887897, "lat": 9.892047, "lon": 37.8379172}, {"type": "node", "id": 276887899, "lat": 9.8996674, "lon": 37.8421658}, {"type": "node", "id": 276887901, "lat": 9.9028434, "lon": 37.8496599}, {"type": "node", "id": 276887902, "lat": 9.9004918, "lon": 37.8593373}, {"type": "node", "id": 276887903, "lat": 9.9019873, "lon": 37.8610808}, {"type": "node", "id": 276887904, "lat": 9.9093063, "lon": 37.8599703}, {"type": "node", "id": 276887905, "lat": 9.9198379, "lon": 37.8673732}, {"type": "node", "id": 276887906, "lat": 9.915082, "lon": 37.8698569}, {"type": "node", "id": 276887907, "lat": 9.9150239, "lon": 37.8765893}, {"type": "node", "id": 276887908, "lat": 9.9158588, "lon": 37.8786546}, {"type": "node", "id": 276887909, "lat": 9.9196265, "lon": 37.8781181}, {"type": "node", "id": 276887910, "lat": 9.9281446, "lon": 37.8858054}, {"type": "node", "id": 276887911, "lat": 9.9291063, "lon": 37.8947854}, {"type": "node", "id": 276887912, "lat": 9.9317272, "lon": 37.9003268}, {"type": "node", "id": 276887913, "lat": 9.9365884, "lon": 37.904951}, {"type": "node", "id": 276887914, "lat": 9.9347285, "lon": 37.9151165}, {"type": "node", "id": 276887915, "lat": 9.9294973, "lon": 37.9175091}, {"type": "node", "id": 276887916, "lat": 9.9192091, "lon": 37.9300511}, {"type": "node", "id": 276887917, "lat": 9.9221524, "lon": 37.9359412}, {"type": "node", "id": 289653826, "lat": -0.7601448, "lon": 37.2752833}, {"type": "node", "id": 298290931, "lat": 9.3508526, "lon": 42.8003788, "tags": {"admin_level": "8", "capital": "4", "import:ALTNAMES": "Djidjiga, Giggiga, Jigijiga, Jigjiga", "import:FULL": "Jijiga", "import:LAT": "935", "import:LON": "4279", "import:PARENTADMIN1": "Somali", "import:PARENTCOUNTRY": "Ethiopia", "import:POPULATION": "107122", "import:TYPE": "locality", "import:UFI": "357682279", "name": "\u1302\u1302\u130b Jigjiga", "name:am": "\u1302\u1302\u130b", "name:ar": "\u062c\u064a\u062c\u064a\u062c\u0627", "name:be": "\u0414\u0436\u044b\u0434\u0436\u044b\u0433\u0430", "name:ca": "Jijiga", "name:cs": "D\u017eid\u017eiga", "name:de": "Jijiga", "name:el": "\u03a4\u03b6\u03b9\u03c4\u03b6\u03af\u03b3\u03ba\u03b1", "name:en": "Jijiga", "name:eo": "\u011ci\u011diga", "name:es": "Jijiga", "name:et": "Jijiga", "name:eu": "Jijiga", "name:fa": "\u062c\u06cc\u062c\u06cc\u06af\u0627", "name:fr": "Djidjiga", "name:he": "\u05d2'\u05d9\u05d2'\u05d9\u05d2\u05d4", "name:hr": "Jijiga", "name:hu": "Jijiga", "name:it": "Giggiga", "name:ja": "\u30b8\u30b8\u30ac", "name:ko": "\uc9c0\uc9c0\uac00", "name:lt": "D\u017eid\u017eiga", "name:ml": "\u0d1c\u0d3f\u0d1c\u0d3f\u0d17", "name:nb": "Jijiga", "name:nl": "Jijiga", "name:pl": "D\u017cid\u017ciga", "name:pt": "Jijiga", "name:ro": "Jijiga", "name:ru": "\u0414\u0436\u0438\u0434\u0436\u0438\u0433\u0430", "name:sn": "Jijiga", "name:so": "Jigjiga", "name:sv": "Jijiga", "name:uk": "\u0414\u0436\u0438\u0434\u0436\u0438\u0433\u0430", "name:zh": "\u5409\u5409\u52a0", "name:zu": "Jijiga", "place": "city", "population": "107122", "source": "world-gazetteer.com (C) Stefan Helders", "wikidata": "Q755763", "wikipedia": "en:Jijiga"}}, {"type": "node", "id": 310529591, "lat": 11.2380531, "lon": 34.9321675}, {"type": "node", "id": 310529592, "lat": 11.2385372, "lon": 34.9427247}, {"type": "node", "id": 310529593, "lat": 11.2362431, "lon": 34.9543118}, {"type": "node", "id": 310529594, "lat": 11.2326957, "lon": 34.9675505}, {"type": "node", "id": 310585019, "lat": 9.8624885, "lon": 37.7751374}, {"type": "node", "id": 310585102, "lat": 9.9238935, "lon": 37.5938979}, {"type": "node", "id": 310585103, "lat": 9.9288685, "lon": 37.5928599}, {"type": "node", "id": 310585105, "lat": 9.9349715, "lon": 37.592876}, {"type": "node", "id": 310585106, "lat": 9.940451, "lon": 37.5931817}, {"type": "node", "id": 310585109, "lat": 9.9435315, "lon": 37.5904244}, {"type": "node", "id": 310585110, "lat": 9.9458352, "lon": 37.5830698}, {"type": "node", "id": 310585112, "lat": 9.9491323, "lon": 37.5761068}, {"type": "node", "id": 310585113, "lat": 9.9525297, "lon": 37.5723088}, {"type": "node", "id": 310585114, "lat": 9.9606612, "lon": 37.5573635}, {"type": "node", "id": 310585115, "lat": 9.9682694, "lon": 37.5552177}, {"type": "node", "id": 310585117, "lat": 9.9763371, "lon": 37.5549602}, {"type": "node", "id": 310585118, "lat": 9.9830205, "lon": 37.5475466}, {"type": "node", "id": 310585119, "lat": 9.9907919, "lon": 37.5417477}, {"type": "node", "id": 310585121, "lat": 9.9938614, "lon": 37.5389528}, {"type": "node", "id": 310585122, "lat": 10.0007425, "lon": 37.5347337}, {"type": "node", "id": 310585124, "lat": 10.0043375, "lon": 37.5262499}, {"type": "node", "id": 310585126, "lat": 10.0044907, "lon": 37.5166798}, {"type": "node", "id": 310585128, "lat": 10.0022719, "lon": 37.511723}, {"type": "node", "id": 310585129, "lat": 10.003022, "lon": 37.5031078}, {"type": "node", "id": 310585130, "lat": 10.0039201, "lon": 37.5001037}, {"type": "node", "id": 310585131, "lat": 10.0082098, "lon": 37.4932694}, {"type": "node", "id": 310585133, "lat": 10.0085003, "lon": 37.4855661}, {"type": "node", "id": 310585134, "lat": 10.0190974, "lon": 37.4787855}, {"type": "node", "id": 310585135, "lat": 10.0190604, "lon": 37.4730348}, {"type": "node", "id": 310585137, "lat": 10.0169368, "lon": 37.4665868}, {"type": "node", "id": 310585138, "lat": 10.0174862, "lon": 37.4533903}, {"type": "node", "id": 310585139, "lat": 10.0199875, "lon": 37.4449334}, {"type": "node", "id": 310585140, "lat": 10.0263926, "lon": 37.4396682}, {"type": "node", "id": 310585142, "lat": 10.0307665, "lon": 37.4364012}, {"type": "node", "id": 310585143, "lat": 10.0345223, "lon": 37.431938}, {"type": "node", "id": 310585144, "lat": 10.0431694, "lon": 37.4189562}, {"type": "node", "id": 310585145, "lat": 10.0444899, "lon": 37.4136937}, {"type": "node", "id": 310585147, "lat": 10.050707, "lon": 37.4026269}, {"type": "node", "id": 310585148, "lat": 10.0500626, "lon": 37.390219}, {"type": "node", "id": 310585149, "lat": 10.0451607, "lon": 37.381947}, {"type": "node", "id": 310585151, "lat": 10.0453086, "lon": 37.3776609}, {"type": "node", "id": 310585152, "lat": 10.0476434, "lon": 37.3687398}, {"type": "node", "id": 310585153, "lat": 10.0464073, "lon": 37.3627424}, {"type": "node", "id": 310585155, "lat": 10.0408716, "lon": 37.3585421}, {"type": "node", "id": 310585158, "lat": 10.030328, "lon": 37.3556668}, {"type": "node", "id": 310585159, "lat": 10.020698, "lon": 37.3551035}, {"type": "node", "id": 310585162, "lat": 10.010727, "lon": 37.3470595}, {"type": "node", "id": 310585164, "lat": 10.0110809, "lon": 37.3331416}, {"type": "node", "id": 310585165, "lat": 10.0145385, "lon": 37.3256153}, {"type": "node", "id": 310585166, "lat": 10.0165565, "lon": 37.324124}, {"type": "node", "id": 310585168, "lat": 10.0289652, "lon": 37.3112762}, {"type": "node", "id": 310585169, "lat": 10.0302858, "lon": 37.3103911}, {"type": "node", "id": 310585170, "lat": 10.0433806, "lon": 37.3042971}, {"type": "node", "id": 310585171, "lat": 10.0561501, "lon": 37.3023391}, {"type": "node", "id": 310585173, "lat": 10.0603308, "lon": 37.29904}, {"type": "node", "id": 310585174, "lat": 10.063735, "lon": 37.2962773}, {"type": "node", "id": 310585175, "lat": 10.0677968, "lon": 37.293756}, {"type": "node", "id": 310585176, "lat": 10.0716736, "lon": 37.284143}, {"type": "node", "id": 310585178, "lat": 10.0764615, "lon": 37.2792989}, {"type": "node", "id": 310585179, "lat": 10.0824984, "lon": 37.2665182}, {"type": "node", "id": 310585180, "lat": 10.0823742, "lon": 37.2574416}, {"type": "node", "id": 310585182, "lat": 10.0816348, "lon": 37.2523481}, {"type": "node", "id": 310585183, "lat": 10.0823927, "lon": 37.2409487}, {"type": "node", "id": 310585184, "lat": 10.0850414, "lon": 37.2342056}, {"type": "node", "id": 310585185, "lat": 10.0931141, "lon": 37.2180533},